address,"Geocodio Latitude","Geocodio Longitude","Geocodio Accuracy Score","Geocodio Accuracy Type","Geocodio Address Line 1","Geocodio Address Line 2","Geocodio Address Line 3","Geocodio House Number","Geocodio Street","Geocodio Unit Type","Geocodio Unit Number","Geocodio City","Geocodio State","Geocodio County","Geocodio Postal Code","Geocodio Country","Geocodio Source","Geocodio Stable Address Key","Geocodio Match Type"
"5715 S 1300 E, Salt Lake City, Utah 84121",40.646597,-111.853382,1,rooftop,"5715 S 1300 E",,"Murray, UT 84121",5715,"S 1300 E",,,Murray,UT,"Salt Lake County",84121,US,"Utah AGRC (and individual UT counties)",gcod_usnzwubnkncxu4j3mfu67kl8tzyrc,building_centroid
"10189 N 4800 W, Highland, Utah 84003",40.419625,-111.773258,1,range_interpolation,"10189 N 4800 W",,"Highland, UT 84003",10189,"N 4800 W",,,Highland,UT,"Utah County",84003,US,"TIGER/Line® from the US Census Bureau",gcod_usnhsmmplv7znluamt2mmkzfcbcn8,
"1450 N 200 E, Orem, Utah 84057",40.324543,-111.691108,0.94,nearest_rooftop_match,"1452 N 200 E",,"Orem, UT 84057",1452,"N 200 E",,,Orem,UT,"Utah County",84057,US,Utah,gcod_usndd85bje7a7bf9sftvl765jgyth,building_centroid
"510 N 600 E, American Fork, Utah 84003",40.388225,-111.782245,1,range_interpolation,"510 N 600 E",,"American Fork, UT 84003",510,"N 600 E",,,"American Fork",UT,"Utah County",84003,US,"TIGER/Line® from the US Census Bureau",gcod_usnnus5xp9269nxetn53yxeen43z3,
"175 S 400 E, Orem, Utah 84097",40.292289,-111.68441,1,rooftop,"175 S 400 E",,"Orem, UT 84097",175,"S 400 E",,,Orem,UT,"Utah County",84097,US,"Utah AGRC (and individual UT counties)",gcod_usn4dtgyysbce5u3rev7kcft4h2ca,building_centroid
"180 N 500 E, Lehi, Utah 84043",40.389849,-111.840171,1,rooftop,"180 N 500 E",,"Lehi, UT 84043",180,"N 500 E",,,Lehi,UT,"Utah County",84043,US,"Utah AGRC (and individual UT counties)",gcod_usnexg43v3edbmwctc7ujmh8nevqa,building_centroid
"3000 North Center Street, Lehi, Utah 84043",40.426028,-111.848113,1,rooftop,"3000 N Center St",,"Lehi, UT 84043",3000,"N Center St",,,Lehi,UT,"Utah County",84043,US,Utah,gcod_usnjpp7yf9jj7uq3qsn6ufvdf67e8,building_centroid
"700 E 200 S, Pleasant Grove, Utah 84062",40.360125,-111.725449,1,rooftop,"700 E 200 S",,"Pleasant Grove, UT 84062",700,"E 200 S",,,"Pleasant Grove",UT,"Utah County",84062,US,"Utah AGRC (and individual UT counties)",gcod_usngqslgv5narpe8nmrtj6cylgfw7,building_centroid
"99 N 200 W, Saratoga Springs, Utah 84045",40.388978,-111.852278,0.94,range_interpolation,"99 N 200 W",,"Lehi, UT 84043",99,"N 200 W",,,Lehi,UT,"Utah County",84043,US,"TIGER/Line® from the US Census Bureau",gcod_usn67r2d5sy7k8t3emb358dmwcn58,
"665 W Center, Orem, Utah 84057",40.29702,-111.711423,1,range_interpolation,"665 W Center St",,"Orem, UT 84057",665,"W Center St",,,Orem,UT,"Utah County",84057,US,"TIGER/Line® from the US Census Bureau",gcod_usn6ydskshxc9v7gtatgk5k8gstjg,
"1389 East Aviator Avenue, Eagle Mountain, Utah 84005",40.321035,-112.017711,1,rooftop,"1389 E Aviator Ave",,"Eagle Mountain, UT 84005",1389,"E Aviator Ave",,,"Eagle Mountain",UT,"Utah County",84005,US,Utah,gcod_usncrn5dn7yg59kg43pmdnw929cb2,building_centroid
"169 N 1100 E, American Fork, Utah 84003",40.379175,-111.769261,1,range_interpolation,"169 N 1100 E",,"American Fork, UT 84003",169,"N 1100 E",,,"American Fork",UT,"Utah County",84003,US,"TIGER/Line® from the US Census Bureau",gcod_usne6pdsvap7kwnaz78zhuybwjwf7,
"682 W 210 N, Saratoga Springs, Utah 84045",40.224944,-111.670427,0.84,range_interpolation,"682 W St",,"Provo, UT 84601",682,"W St",,,Provo,UT,"Utah County",84601,US,"TIGER/Line® from the US Census Bureau",gcod_usn5l2kkf4s49sc2n782u5petufff,
"708 So Utah Valley Drive, American Fork, Utah 84003",40.361752,-111.782497,1,rooftop,"708 S Utah Valley Dr",,"American Fork, UT 84003",708,"S Utah Valley Dr",,,"American Fork",UT,"Utah County",84003,US,Utah,gcod_usnkn8j4lbz3v7g87j78lhm32yjz4,building_centroid
"704 S Utah Valley Drive, American Fork, Utah 84003",40.361752,-111.782497,1,rooftop,"704 S Utah Valley Dr",,"American Fork, UT 84003",704,"S Utah Valley Dr",,,"American Fork",UT,"Utah County",84003,US,Utah,gcod_usnkn8j4lbz3v7g8cgpslppaqklr4,building_centroid
"5410 W South Jordan Parkway, South Jordan, Utah 84009",40.5579,-112.018387,0.84,nearest_rooftop_match,"5352 W South Jordan Pkwy",,"South Jordan, UT 84009",5352,"W South Jordan Pkwy",,,"South Jordan",UT,"Salt Lake County",84009,US,"Utah AGRC (and individual UT counties)",gcod_usnf4hautph6hr2fayllzz4nhf7d6,building_centroid
"898 W 1100 S, Spanish Fork, Utah 84660",40.096733,-111.669978,1,rooftop,"898 W 1100 S",,"Spanish Fork, UT 84660",898,"W 1100 S",,,"Spanish Fork",UT,"Utah County",84660,US,"Utah AGRC (and individual UT counties)",gcod_usng4g6s2rp7n952wb42h55yapg97,building_centroid
"11938 Lone Peak Parkway, Draper, Utah 84020",40.533382,-111.896404,1,range_interpolation,"11938 Lone Peak Pkwy",,"Draper, UT 84020",11938,"Lone Peak Pkwy",,,Draper,UT,"Salt Lake County",84020,US,"TIGER/Line® from the US Census Bureau",gcod_usnahm98wdhvzhv5vefmt4yrly573,
"3636 W 3100 S, West Valley City, Utah 84120",40.704715,-111.978004,1,rooftop,"3636 W 3100 S",,"West Valley City, UT 84120",3636,"W 3100 S",,,"West Valley City",UT,"Salt Lake County",84120,US,"Utah AGRC (and individual UT counties)",gcod_usn3fjy44qg786wanj62gaepyl5j9,building_centroid
"765 E 340 S Suite 203, American Fork, Utah 84003",40.370256,-111.777433,1,rooftop,"765 E 340 S","Ste 203","American Fork, UT 84003",765,"E 340 S",Ste,203,"American Fork",UT,"Utah County",84003,US,"Utah AGRC (and individual UT counties)",gcod_usn5hm5hc4rmum427rjpbds6whlyh-sbgvr8dlzratg,building_centroid
"62 N 300 W, Milford, Utah 84751",38.39781,-113.013673,1,rooftop,"62 N 300 W",,"Milford, UT 84751",62,"N 300 W",,,Milford,UT,"Beaver County",84751,US,"Utah AGRC (and individual UT counties)",gcod_usnk9v9h5pazxsv7zqybbq8gnb796,building_centroid
"195 E Center, Beaver, Utah 84713",38.359338,-112.643637,0.92,range_interpolation,"195 W Ctr",,"Beaver, UT 84713",195,"W Ctr",,,Beaver,UT,"Beaver County",84713,US,"TIGER/Line® from the US Census Bureau",gcod_usngp72r3clya2ggdh5jrahtaybr8,
"2165 East 9400 South, Sandy, Utah 84093",40.581561,-111.829562,1,rooftop,"2165 E 9400 S",,"Sandy, UT 84093",2165,"E 9400 S",,,Sandy,UT,"Salt Lake County",84093,US,"Utah AGRC (and individual UT counties)",gcod_usnrjd66fzpy3um8us8x6lhnmfkn4,building_centroid
"380 S 600 W, Brigham City, Utah 84302",41.503636,-112.026288,1,rooftop,"380 S 600 W",,"Brigham City, UT 84302",380,"S 600 W",,,"Brigham City",UT,"Box Elder County",84302,US,"Box Elder",gcod_usnffmfdz3mb4fu95xrt5mdbabt49,building_centroid
"1450 S Main, Garland, Utah 84312",41.724996,-112.163022,1,rooftop,"1450 S Main St",,"Garland, UT 84312",1450,"S Main St",,,Garland,UT,"Box Elder County",84312,US,"Box Elder",gcod_usnn92mknrhqqy75mu4m5c8tgtkxb,building_centroid
"230 W 200 S, Brigham City, Utah 84302",41.505999,-112.020086,1,range_interpolation,"230 W 200 S",,"Brigham City, UT 84302",230,"W 200 S",,,"Brigham City",UT,"Box Elder County",84302,US,"TIGER/Line® from the US Census Bureau",gcod_usnvbc2b5uwhazxh8v6r4apk59qbh,
"2960 N. Wolf Pack Way, North Logan, Utah 84341",41.785304,-111.829144,1,rooftop,"2960 N Wolf Pack Way",,"Logan, UT 84341",2960,"N Wolf Pack Way",,,Logan,UT,"Cache County",84341,US,"Utah AGRC (and individual UT counties)",gcod_usneg8tgc6bry332mspemx99fqw59,building_centroid
"520 S 250 E, Smithfield, Utah 84335",41.82583,-111.824864,1,rooftop,"520 S 250 E",,"Smithfield, UT 84335",520,"S 250 E",,,Smithfield,UT,"Cache County",84335,US,"Utah AGRC (and individual UT counties)",gcod_usnaejjadmhxu85f3tjle2fr6jc9f,building_centroid
"180 N 300 W, Millville, Utah 84326",41.685432,-111.830522,1,rooftop,"180 N 300 W",,"Millville, UT 84326",180,"N 300 W",,,Millville,UT,"Cache County",84326,US,"Utah AGRC (and individual UT counties)",gcod_usnxnbedff4dlwe66ugdu8fh98pm7,building_centroid
"255 S 800 E, Hyrum, Utah 84319",41.62882,-111.830405,1,rooftop,"255 S 800 E",,"Hyrum, UT 84319",255,"S 800 E",,,Hyrum,UT,"Cache County",84319,US,"Utah AGRC (and individual UT counties)",gcod_usn6xussf66wh665zpag388pw85r3,building_centroid
"265 W 1400 N, Logan, Utah 84341",41.757579,-111.841257,1,range_interpolation,"265 W 1400 N",,"Logan, UT 84341",265,"W 1400 N",,,Logan,UT,"Cache County",84341,US,"TIGER/Line® from the US Census Bureau",gcod_usnmpu9kj3fa25w4rxrnf3b3nwtua,
"12943 S. 700 E., Draper, Utah 84020",40.517029,-111.870531,1,rooftop,"12943 S 700 E",,"Draper, UT 84020",12943,"S 700 E",,,Draper,UT,"Salt Lake County",84020,US,"Utah AGRC (and individual UT counties)",gcod_usnbg6jzrve3xstam928dy7vtx4y4,building_centroid
"2220 E 7695 S, Salt Lake City, Utah 84121",40.769915,-111.877568,0.59,street_center,"E St",,"Salt Lake City, UT 84103",,"E St",,,"Salt Lake City",UT,"Salt Lake County",84103,US,"TIGER/Line® from the US Census Bureau",gcod_usskrjh7htrvwuz5,
"11055 S 1000 E, Sandy, Utah 84094",40.549965,-111.861014,1,rooftop,"11055 S 1000 E",,"Sandy, UT 84094",11055,"S 1000 E",,,Sandy,UT,"Salt Lake County",84094,US,"Utah AGRC (and individual UT counties)",gcod_usnntln4ffnsv7n4yzjf3sdabpx28,building_centroid
"7350 S 900 E, Midvale, Utah 84047",40.618631,-111.866209,1,range_interpolation,"7350 S 900 E",,"Midvale, UT 84047",7350,"S 900 E",,,Midvale,UT,"Salt Lake County",84047,US,"TIGER/Line® from the US Census Bureau",gcod_usnupcd542xcxengtpydage56nauc,
"95 E 9825 S, Sandy, Utah 84070",40.771654,-111.877712,0.82,range_interpolation,"95 E St",,"Salt Lake City, UT 84103",95,"E St",,,"Salt Lake City",UT,"Salt Lake County",84103,US,"TIGER/Line® from the US Census Bureau",gcod_usnkrjh7htrvwuz5a7ut7afqm3hse,
"9800 S 800 East, Sandy, Utah 84094",40.573267,-111.868584,1,range_interpolation,"9800 S 800 E",,"Sandy, UT 84094",9800,"S 800 E",,,Sandy,UT,"Salt Lake County",84094,US,"TIGER/Line® from the US Census Bureau",gcod_usn4qty327bby44h8bbadjqw8lgng,
"825 E 9085 S, Sandy, Utah 84094",40.587292,-111.869116,1,rooftop,"825 E 9085 S",,"Sandy, UT 84094",825,"E 9085 S",,,Sandy,UT,"Salt Lake County",84094,US,"Utah AGRC (and individual UT counties)",gcod_usnvcvfwhvstw6lh8jv2bem4zmac4,building_centroid
"7501 S 1000 E, Midvale, Utah 84047",40.614856,-111.861516,1,rooftop,"7501 S 1000 E",,"Midvale, UT 84047",7501,"S 1000 E",,,Midvale,UT,"Salt Lake County",84047,US,"Utah AGRC (and individual UT counties)",gcod_usnbh7luafvgx56b6bqecllrryy84,building_centroid
"750 E 400 N, Price, Utah 84501",39.607612,-110.797138,1,rooftop,"750 E 400 N",,"Price, UT 84501",750,"E 400 N",,,Price,UT,"Carbon County",84501,US,"Utah AGRC (and individual UT counties)",gcod_usnf8wt7avf6jjtf3sknuhyd4xecc,building_centroid
"755 N Cedar Hills Dr, Price, Utah 84501",39.612223,-110.793174,1,rooftop,"755 N Cedar Hills Dr",,"Price, UT 84501",755,"N Cedar Hills Dr",,,Price,UT,"Carbon County",84501,US,"Utah AGRC (and individual UT counties)",gcod_usngujxgx4clpsxesemyhg8dv2j44,building_centroid
"555 E 200 S, Salt Lake City, Utah 84102",40.765154,-111.875204,1,range_interpolation,"555 E 200 S",,"Salt Lake City, UT 84102",555,"E 200 S",,,"Salt Lake City",UT,"Salt Lake County",84102,US,"TIGER/Line® from the US Census Bureau",gcod_usnxzanthaqnmh28lppat3jm3per3,
"160 W 200 N, Manila, Utah 84046",40.984757,-109.720741,0.88,range_interpolation,"160 200 S",,"Manila, UT 84046",160,"200 S",,,Manila,UT,"Daggett County",84046,US,"TIGER/Line® from the US Census Bureau",gcod_usnv4a4w8se7qe87tdmlqwp4hakj7,
"2033 Grant Ave, Ogden, Utah 84401",41.23047,-111.973692,1,rooftop,"2033 Grant Ave",,"Ogden, UT 84401",2033,"Grant Ave",,,Ogden,UT,"Weber County",84401,US,"Utah AGRC (and individual UT counties)",gcod_usn53ehc8ag66784rn6uwqqdfx7uc,building_centroid
"325 S Main, Kaysville, Utah 84037",41.029946,-111.931498,1,rooftop,"325 S Main St",,"Kaysville, UT 84037",325,"S Main St",,,Kaysville,UT,"Davis County",84037,US,"Utah AGRC (and individual UT counties)",gcod_usnl49ll3ce594k3vvpsg4wludglh,building_centroid
"695 S Orchard Dr, Bountiful, Utah 84010",40.881965,-111.872109,1,rooftop,"695 S Orchard Dr",,"Bountiful, UT 84010",695,"S Orchard Dr",,,Bountiful,UT,"Davis County",84010,US,"Utah AGRC (and individual UT counties)",gcod_usn9mrcn9t6zaa8a9qyaefemgf6x3,building_centroid
"548 W Glovers Lange, Farmington, Utah 84025",40.965554,-111.899453,1,rooftop,"548 W Glovers Ln",,"Farmington, UT 84025",548,"W Glovers Ln",,,Farmington,UT,"Davis County",84025,US,"Utah AGRC (and individual UT counties)",gcod_usnfmgj6x7k36avhbpbsskvdyx6hg,building_centroid
"120 W 1000 N, Bountiful, Utah 84010",40.900199,-111.882426,1,rooftop,"120 W 1000 N",,"Bountiful, UT 84010",120,"W 1000 N",,,Bountiful,UT,"Davis County",84010,US,"Utah AGRC (and individual UT counties)",gcod_usn5cljznhbcqer54yflm5b2t2x3c,building_centroid
"600 W 2200 S, Woods Cross, Utah 84087",40.868251,-111.896167,1,rooftop,"600 W 2200 S",,"Woods Cross, UT 84010",600,"W 2200 S",,,"Woods Cross",UT,"Davis County",84010,US,"Utah AGRC (and individual UT counties)",gcod_usnma9mq7u2ve7jdwfqxl7p5y2mtd,building_centroid
"665 S 2000 W, Syracuse, Utah 84075",41.105051,-112.064057,1,rooftop,"665 S 2000 W",,"Syracuse, UT 84075",665,"S 2000 W",,,Syracuse,UT,"Davis County",84075,US,"Utah AGRC (and individual UT counties)",gcod_usnwjcahcm25t9x7894cc9njb3av5,building_centroid
"931 S 1000 E, Clearfield, Utah 84015",41.100463,-112.006199,1,rooftop,"931 S 1000 E",,"Clearfield, UT 84015",931,"S 1000 E",,,Clearfield,UT,"Davis County",84015,US,"Utah AGRC (and individual UT counties)",gcod_usnpd2grbpvh4yhewrmdadwk4j4sd,building_centroid
"2430 N Hillfield Rd, Layton, Utah 84041",41.095497,-111.972067,1,rooftop,"2430 N Hill Field Rd",,"Layton, UT 84041",2430,"N Hill Field Rd",,,Layton,UT,"Davis County",84041,US,"Utah AGRC (and individual UT counties)",gcod_usnqbmjw9f5mz78cmjpgsj8b2bcx4,building_centroid
"440 Lancer Ln, Layton, Utah 84041",41.059863,-111.994525,0.5,place,,,"Layton, UT 84041",,,,,Layton,UT,"Davis County",84041,US,"TIGER/Line® from the US Census Bureau",,
"2195 University Park Blvd, Layton, Utah 84041",41.092504,-111.987914,1,range_interpolation,"2195 University Park Blvd",,"Layton, UT 84041",2195,"University Park Blvd",,,Layton,UT,"Davis County",84041,US,"TIGER/Line® from the US Census Bureau",gcod_usnwuca6l3nt5hsahsdrl37tn2eea,
"490 S 500 E, Kaysville, Utah 84037",41.028536,-111.927637,1,rooftop,"490 S 500 E",,"Kaysville, UT 84037",490,"S 500 E",,,Kaysville,UT,"Davis County",84037,US,"Utah AGRC (and individual UT counties)",gcod_usnhr6g2tk9t5l55zaqtwst4rj4u9,building_centroid
"264 S 500 E, Kaysville, Utah 84037",41.030469,-111.927609,1,rooftop,"264 S 500 E",,"Kaysville, UT 84037",264,"S 500 E",,,Kaysville,UT,"Davis County",84037,US,"Utah AGRC (and individual UT counties)",gcod_usnhr6g2tk9t5l557ezq7r9qcrytg,building_centroid
"15750 W Hwy 87, Altamont, Utah 84001",40.356552,-110.288534,0.87,nearest_rooftop_match,"15723 W Hwy 87",,"Altamont, UT 84001",15723,"W Hwy 87",,,Altamont,UT,"Duchesne County",84001,US,"Utah AGRC (and individual UT counties)",gcod_usnumqqnhnkleyd8b8d926fxz26v6,building_centroid
"155 W. Main Street, Duchesne, Utah 84021",40.163292,-110.40401,1,range_interpolation,"155 W Main St",,"Duchesne, UT 84021",155,"W Main St",,,Duchesne,UT,"Duchesne County",84021,US,"TIGER/Line® from the US Census Bureau",gcod_usnx3ebextclpl7f9znqwrf5ashkh,
"850 East Lagoon Street, Roosevelt, Utah 84066",40.29858,-109.978896,1,rooftop,"850 E Lagoon St",,"Roosevelt, UT 84066",850,"E Lagoon St",,,Roosevelt,UT,"Duchesne County",84066,US,"Utah AGRC (and individual UT counties)",gcod_usnnx5pp88pelykae2kdbg87bzut2,building_centroid
"1091 E Lagoon St, Roosevelt, Utah 84066",40.300007,-109.97881,0.73,nearest_rooftop_match,"1265 E Lagoon St",,"Roosevelt, UT 84066",1265,"E Lagoon St",,,Roosevelt,UT,"Duchesne County",84066,US,"Utah AGRC (and individual UT counties)",gcod_usnnx5pp88pelykalg5xur43ef282,building_centroid
"325 E Main St, Myton, Utah 84052",40.194438,-110.056773,1,range_interpolation,"325 E Main St",,"Myton, UT 84052",325,"E Main St",,,Myton,UT,"Duchesne County",84052,US,"TIGER/Line® from the US Census Bureau",gcod_usn55hv9jswyaxt86uzr5zkqhyhya,
"10 N Main, Tabiona, Utah 84072",40.162987,-110.39994,0.63,nearest_rooftop_match,"94 E Main St",,"Duchesne, UT 84021",94,"E Main St",,,Duchesne,UT,"Duchesne County",84021,US,Duchesne,gcod_usnrxbx7g6rsc9w7vv4y3rn6caju6,
"2185 S 3600 W, West Valley City, Utah 84119",40.724218,-111.97564,1,rooftop,"2185 S 3600 W",,"West Valley City, UT 84119",2185,"S 3600 W",,,"West Valley City",UT,"Salt Lake County",84119,US,"Utah AGRC (and individual UT counties)",gcod_usnavhvgcvuu339ccy9gblu9qe8nh,building_centroid
"975 N Center, Castle Dale, Utah 84513",39.227666,-111.020582,0.88,nearest_rooftop_match,"955 N Center St",,"Castle Dale, UT 84513",955,"N Center St",,,"Castle Dale",UT,"Emery County",84513,US,"Utah AGRC (and individual UT counties)",gcod_usnvfhqh9s32tezdpnr6uyx3kgm9e,building_centroid
"400 N 455 W, Green River, Utah 84525",39.020075,-110.213864,0.5,place,,,"Green River, UT 84525",,,,,"Green River",UT,"Emery County",84525,US,"TIGER/Line® from the US Census Bureau",,
"875 W 1400 N, Logan, Utah 84321",41.757795,-111.855653,1,range_interpolation,"875 W 1400 N",,"Logan, UT 84321",875,"W 1400 N",,,Logan,UT,"Cache County",84321,US,"TIGER/Line® from the US Census Bureau",gcod_usn9pejjfrkaw7xh52sfpfyq8g4c5,
"1190 W 900 N, Provo, Utah 84604",40.246682,-111.679438,1,rooftop,"1190 W 900 N",,"Provo, UT 84604",1190,"W 900 N",,,Provo,UT,"Utah County",84604,US,"City of Provo",gcod_usnd9kerpkr2ber6jx2faujvq2sh9,building_centroid
"721 W Bryce Way, Tropic, Utah 84776",37.624883,-112.094474,1,rooftop,"721 W Bryce Way",,"Tropic, UT 84776",721,"W Bryce Way",,,Tropic,UT,"Garfield County",84776,US,"Utah AGRC (and individual UT counties)",gcod_usnsk7l2sskmgh98gfef3wemxjzm3,building_centroid
"390 E 100 S, Panguitch, Utah 84759",37.821165,-112.427998,1,range_interpolation,"390 E 100 S",,"Panguitch, UT 84759",390,"E 100 S",,,Panguitch,UT,"Garfield County",84759,US,"TIGER/Line® from the US Census Bureau",gcod_usn8wwysgr9a3ru3sej8cd267u6s9,
"800 E Highway 12, Escalante, Utah 84726",37.764665,-111.586655,0.94,nearest_rooftop_match,"802 E Hwy 12",,"Escalante, UT 84726",802,"E Hwy 12",,,Escalante,UT,"Garfield County",84726,US,"Utah AGRC (and individual UT counties)",gcod_usn6ukn7fwtqpm58ndnlbd3uraj7g,building_centroid
"608 S 400 E, Moab, Utah 84532",38.563266,-109.542727,1,range_interpolation,"608 S 400 E",,"Moab, UT 84532",608,"S 400 E",,,Moab,UT,"Grand County",84532,US,"TIGER/Line® from the US Census Bureau",gcod_usn5xj4g85t5g9dd9s7k46nrw3us8,
"3251 E 3760 S, Salt Lake City, Utah 84109",40.689636,-111.801468,1,range_interpolation,"3251 E 3760 S",,"Salt Lake City, UT 84109",3251,"E 3760 S",,,"Salt Lake City",UT,"Salt Lake County",84109,US,"TIGER/Line® from the US Census Bureau",gcod_usnchnnanbnhr2m7hs5u5m9wsg9na,
"4055 S 2300 E, Salt Lake City, Utah 84124",40.68355,-111.823563,1,rooftop,"4055 S 2300 E",,"Salt Lake City, UT 84124",4055,"S 2300 E",,,"Salt Lake City",UT,"Salt Lake County",84124,US,"Utah AGRC (and individual UT counties)",gcod_usncvezchwme5s4eypahr3gjkkqse,building_centroid
"5225 S Redwood Road, Taylorsville, Utah 84123",40.655576,-111.937068,1,rooftop,"5225 S Redwood Rd",,"Salt Lake City, UT 84123",5225,"S Redwood Rd",,,"Salt Lake City",UT,"Salt Lake County",84123,US,"Utah AGRC (and individual UT counties)",gcod_usnkszftsv6xydt527umjn3qud4b9,building_centroid
"4200 S 5600 W, West Valley City, Utah 84120",40.67872,-112.026386,1,rooftop,"4200 S 5600 W",,"West Valley City, UT 84120",4200,"S 5600 W",,,"West Valley City",UT,"Salt Lake County",84120,US,"Utah AGRC (and individual UT counties)",gcod_usnhcyb3fgub37wdta2ggmflrd9wa,building_centroid
"8623 W 3000 S, Magna, Utah 84044",40.705259,-112.097976,1,rooftop,"8623 W 3000 S",,"Magna, UT 84044",8623,"W 3000 S",,,Magna,UT,"Salt Lake County",84044,US,"Utah AGRC (and individual UT counties)",gcod_usndqvngexf6swj3mrzqm63s277va,building_centroid
"5715 S 1300 E, Salt Lake City, Utah 84121",40.646597,-111.853382,1,rooftop,"5715 S 1300 E",,"Murray, UT 84121",5715,"S 1300 E",,,Murray,UT,"Salt Lake County",84121,US,"Utah AGRC (and individual UT counties)",gcod_usnzwubnkncxu4j3mfu67kl8tzyrc,building_centroid
"5525 S Cougar Ln, Kearns, Utah 84118",40.649713,-112.004261,1,rooftop,"5525 S Cougar Ln",,"Salt Lake City, UT 84118",5525,"S Cougar Ln",,,"Salt Lake City",UT,"Salt Lake County",84118,US,"Utah AGRC (and individual UT counties)",gcod_usntnpeyx9kulk5ck3ljtpkaaa5ac,building_centroid
"3690 S 3600 W, West Valley City, Utah 84119",40.692601,-111.97795,1,rooftop,"3690 S 3600 W",,"West Valley City, UT 84119",3690,"S 3600 W",,,"West Valley City",UT,"Salt Lake County",84119,US,"Utah AGRC (and individual UT counties)",gcod_usnavhvgcvuu339cqyafv78hbbtd4,building_centroid
"501 E 3900 S, Salt Lake City, Utah 84107",40.687858,-111.876316,1,rooftop,"501 E 3900 S",,"Salt Lake City, UT 84107",501,"E 3900 S",,,"Salt Lake City",UT,"Salt Lake County",84107,US,"Utah AGRC (and individual UT counties)",gcod_usnafe8lub7nf5u9xkqw38aq6afq5,building_centroid
"450 East 3700 South, Salt Lake City, Utah 84115",40.691029,-111.878907,1,rooftop,"450 E 3700 S",,"Salt Lake City, UT 84115",450,"E 3700 S",,,"Salt Lake City",UT,"Salt Lake County",84115,US,"Utah AGRC (and individual UT counties)",gcod_usnnqp3frmuk7b7fjlu6hbnewn7gh,building_centroid
"1787 N Research Parkway, North Logan, Utah 84341",41.76445,-111.821371,1,rooftop,"1787 Research Pkwy",,"Logan, UT 84341",1787,"Research Pkwy",,,Logan,UT,"Cache County",84341,US,"Utah AGRC (and individual UT counties)",gcod_usntbj8hmz8hunv4u5ehmswau4tn5,building_centroid
"703 W 600 S, Cedar City, Utah 84720",37.665535,-113.072582,1,rooftop,"703 W 600 S",,"Cedar City, UT 84720",703,"W 600 S",,,"Cedar City",UT,"Iron County",84720,US,"Utah AGRC (and individual UT counties)",gcod_usnur974uttn27lds86l4aukwp4r7,building_centroid
"1975 W Royal Hunte Dr, Cedar City, Utah 84720",37.659282,-113.086669,0.92,range_interpolation,"1975 Royal Hunt Dr",,"Cedar City, UT 84720",1975,"Royal Hunt Dr",,,"Cedar City",UT,"Iron County",84720,US,"TIGER/Line® from the US Census Bureau",gcod_usnqqk9gpecf9dkh67gu84yg3bzz3,
"166 W 1925 N, Cedar City, Utah 84721",37.713984,-113.063004,1,rooftop,"166 W 1925 N",,"Cedar City, UT 84721",166,"W 1925 N",,,"Cedar City",UT,"Iron County",84721,US,"Utah AGRC (and individual UT counties)",gcod_usnxtjs76z8qf8l9y72frn4hmruva,building_centroid
"50 W 100 N, Parowan, Utah 84761",37.844098,-112.828845,1,range_interpolation,"50 W 100 N",,"Parowan, UT 84761",50,"W 100 N",,,Parowan,UT,"Iron County",84761,US,"TIGER/Line® from the US Census Bureau",gcod_usncw3d7gzakhz4b4u4ga5j6qak78,
"510 W 800 S, Cedar City, Utah 84720",37.664119,-113.069922,1,rooftop,"510 W 800 S",,"Cedar City, UT 84720",510,"W 800 S",,,"Cedar City",UT,"Iron County",84720,US,"Utah AGRC (and individual UT counties)",gcod_usn6nb2ee5wsxld7qk472znr9x4ad,building_centroid
"8714 Roy Del Circle, West Jordan, Utah 84088",40.59294,-111.974555,1,rooftop,"8714 Roy Del Cir",,"West Jordan, UT 84088",8714,"Roy Del Cir",,,"West Jordan",UT,"Salt Lake County",84088,US,"Utah AGRC (and individual UT counties)",gcod_usnga9qtfk6yd6h7pafn7wt4mw9e3,building_centroid
"2160 W 10400 S, South Jordan, Utah 84095",40.562516,-111.947229,1,range_interpolation,"2160 W 10400 S",,"South Jordan, UT 84095",2160,"W 10400 S",,,"South Jordan",UT,"Salt Lake County",84095,US,"TIGER/Line® from the US Census Bureau",gcod_usny53pxwbwtazlhrwr25xwtfz4wf,
"11917 S 6000 W, Herriman, Utah 84096",40.533283,-112.033136,1,range_interpolation,"11917 S 6000 W",,"Herriman, UT 84096",11917,"S 6000 W",,,Herriman,UT,"Salt Lake County",84096,US,"TIGER/Line® from the US Census Bureau",gcod_usnlg7yp2r3tva67r979ndmffvsma,
"12476 S Silverwolf Way (2700 W, Riverton, Utah 84065",40.524746,-111.959601,0.88,rooftop,"12476 S 2700 W",,"Riverton, UT 84065",12476,"S 2700 W",,,Riverton,UT,"Salt Lake County",84065,US,"Utah AGRC (and individual UT counties)",gcod_usnvz39ek7vkcsch4pbxqmuzte7v7,building_centroid
"14100 S Sentinel Ridge Blvd, Herriman, Utah 84096",40.495064,-112.001158,1,rooftop,"14100 S Sentinel Ridge Blvd",,"Herriman, UT 84096",14100,"S Sentinel Ridge Blvd",,,Herriman,UT,"Salt Lake County",84096,US,"Utah AGRC (and individual UT counties)",gcod_usnd28qvy9wn77ug8v3tmn933sv62,building_centroid
"5445 W 7800 S, West Jordan, Utah 84081",40.609598,-112.021844,1,range_interpolation,"5445 W 7800 S",,"West Jordan, UT 84081",5445,"W 7800 S",,,"West Jordan",UT,"Salt Lake County",84081,US,"TIGER/Line® from the US Census Bureau",gcod_usnsx9zpuyjr34x5xrxvr44ez9vr3,
"7905 South Redwood Road, West Jordan, Utah 84084",40.607555,-111.93682,1,rooftop,"7905 S Redwood Rd",,"West Jordan, UT 84088",7905,"S Redwood Rd",,,"West Jordan",UT,"Salt Lake County",84088,US,"Utah AGRC (and individual UT counties)",gcod_usnacgelvc7vrdw5fbjn8bhhzamc6,building_centroid
"8136 S 2700 W, West Jordan, Utah 84088",40.603959,-111.959387,1,rooftop,"8136 S 2700 W",,"West Jordan, UT 84088",8136,"S 2700 W",,,"West Jordan",UT,"Salt Lake County",84088,US,"Utah AGRC (and individual UT counties)",gcod_usnkz7agseqtzu7aadt8tz89hxdg7,building_centroid
"2827 W 13400 S, Riverton, Utah 84065",40.507657,-111.960124,1,range_interpolation,"2827 W 13400 S",,"Riverton, UT 84065",2827,"W 13400 S",,,Riverton,UT,"Salt Lake County",84065,US,"TIGER/Line® from the US Census Bureau",gcod_usn76rnb9ljzgc6ag2bfsdvh978m3,
"8400 S 1700 W, West Jordan, Utah 84088",40.598583,-111.938737,1,range_interpolation,"8400 S 1700 W",,"West Jordan, UT 84088",8400,"S 1700 W",,,"West Jordan",UT,"Salt Lake County",84088,US,"TIGER/Line® from the US Census Bureau",gcod_usnhcpwjsvmabgbgwxyx692mbmcr2,
"325 W 11000 S, South Jordan, Utah 84095",40.549026,-111.901568,1,rooftop,"325 W 11000 S",,"South Jordan, UT 84095",325,"W 11000 S",,,"South Jordan",UT,"Salt Lake County",84095,US,"Utah AGRC (and individual UT counties)",gcod_usn7adyt3shfjxfgdjprna5cyqqdg,building_centroid
"802 N 650 E, Nephi, Utah 84648",39.727204,-111.823604,0.7,street_center,"N 650 E",,"Nephi, UT 84648",,"N 650 E",,,Nephi,UT,"Juab County",84648,US,"TIGER/Line® from the US Census Bureau",gcod_usstvy3q29sq95p5,
"346 East 600 North, Nephi, Utah 84648",39.717424,-111.829371,1,range_interpolation,"346 E 600 N",,"Nephi, UT 84648",346,"E 600 N",,,Nephi,UT,"Juab County",84648,US,"TIGER/Line® from the US Census Bureau",gcod_usnsuz7n7a4q39n2zv2u7f8cas536,
"150 N Center, Orderville, Utah 84758",37.278182,-112.638199,1,rooftop,"150 N Center St",,"Orderville, UT 84758",150,"N Center St",,,Orderville,UT,"Kane County",84758,US,"Utah AGRC (and individual UT counties)",gcod_usnlaegu7wu4x7kdzgjcgpmmplqrg,building_centroid
"59 E Cowboy Dr, Kanab, Utah 84741",37.038588,-112.528,1,rooftop,"59 E Cowboy Way",,"Kanab, UT 84741",59,"E Cowboy Way",,,Kanab,UT,"Kane County",84741,US,"Utah AGRC (and individual UT counties)",gcod_usnbxa7rl3zmqyd76nx4f4vntbv4h,building_centroid
"320 W 600 S, Lindon, Utah 84042",40.327548,-111.722946,1,rooftop,"320 W 600 S",,"Lindon, UT 84042",320,"W 600 S",,,Lindon,UT,"Utah County",84042,US,"Utah AGRC (and individual UT counties)",gcod_usnp4l2x8rcs4ka6cem5vpafn32xb,building_centroid
"1366 S. Legend Hills Dr. Ste. 190, Clearfield, Utah 84015",41.095585,-111.994133,1,rooftop,"1366 S Legend Hills Dr","Ste 190","Clearfield, UT 84015",1366,"S Legend Hills Dr",Ste,190,Clearfield,UT,"Davis County",84015,US,"Utah AGRC (and individual UT counties)",gcod_usnvfvvajhvbx9aanpnyljub7vv7g-5zf28bzuk9prb,building_centroid
"162 W 100 S, Logan, Utah 84321",41.728802,-111.839184,1,rooftop,"162 W 100 S",,"Logan, UT 84321",162,"W 100 S",,,Logan,UT,"Cache County",84321,US,"Utah AGRC (and individual UT counties)",gcod_usnhk4syw6aafmt4s2phmjpfmdnhb,building_centroid
"1353 W 760 N, Orem, Utah 84057",40.310759,-111.72877,1,rooftop,"1353 W 760 N",,"Orem, UT 84057",1353,"W 760 N",,,Orem,UT,"Utah County",84057,US,"Utah AGRC (and individual UT counties)",gcod_usnsfk86r2gf5yz583ze9jgkaqpfd,building_centroid
"2355 S Technology Drive, West Valley City, Utah 84119",40.720042,-111.973141,1,rooftop,"2355 S Technology Dr",,"West Valley City, UT 84119",2355,"S Technology Dr",,,"West Valley City",UT,"Salt Lake County",84119,US,"Utah AGRC (and individual UT counties)",gcod_usnpkv6rr3sntjecpfaa7bphpdbvb,building_centroid
"1440 W Center Street, Springville, Utah 84663",40.167858,-111.636167,1,rooftop,"1440 W Center St",,"Springville, UT 84663",1440,"W Center St",,,Springville,UT,"Utah County",84663,US,Utah,gcod_usnjs5a7bvtetg98vf786k64q63md,building_centroid
"50 W 300 N, Delta, Utah 84624",39.357201,-112.575269,1,range_interpolation,"50 W 300 N",,"Delta, UT 84624",50,"W 300 N",,,Delta,UT,"Millard County",84624,US,"TIGER/Line® from the US Census Bureau",gcod_usnmxl4aj3s89c3azrwpfrb785vr9,
"200 W Center St, Fillmore, Utah 84631",38.969626,-112.32965,1,rooftop,"200 W Center St",,"Fillmore, UT 84631",200,"W Center St",,,Fillmore,UT,"Millard County",84631,US,"Utah AGRC (and individual UT counties)",gcod_usnrc534ygwv2f3d23d9tq6gjnyp6,building_centroid
"1000 Circle Dr, Eskdale, Utah 84728",39.107755,-113.950901,0.7,street_center,"Circle Dr",,"Garrison, UT 84728",,"Circle Dr",,,Garrison,UT,"Millard County",84728,US,"TIGER/Line® from the US Census Bureau",gcod_ussc8davtd4a42y5,
"55 N 200 E, Morgan, Utah 84050",41.038067,-111.673554,1,rooftop,"55 N 200 E",,"Morgan, UT 84050",55,"N 200 E",,,Morgan,UT,"Morgan County",84050,US,"City of Morgan",gcod_usnhjawpatf9u2b2mz9smpugmmrqd,building_centroid
"67 N. 200 East, Morgan, Utah 84050",41.038173,-111.675205,1,rooftop,"67 N 200 E",,"Morgan, UT 84050",67,"N 200 E",,,Morgan,UT,"Morgan County",84050,US,"City of Morgan",gcod_usnhjawpatf9u2b2l3lrpeghdjyy8,building_centroid
"9067 S 1300 W Suite 204, West Jordan, Utah 84088",40.586457,-111.929032,1,range_interpolation,"9067 S 1300 W","Ste 204","West Jordan, UT 84088",9067,"S 1300 W",Ste,204,"West Jordan",UT,"Salt Lake County",84088,US,"TIGER/Line® from the US Census Bureau",gcod_usnq4p8q9befn44hhnex3995657ef,
"5440 S State, Murray, Utah 84107",40.654327,-111.889219,1,rooftop,"5440 S State St",,"Salt Lake City, UT 84107",5440,"S State St",,,"Salt Lake City",UT,"Salt Lake County",84107,US,"Utah AGRC (and individual UT counties)",gcod_usneb7nx97298pr86tebem429z3gf,building_centroid
"51 N Spanish Fork Pkwy, Spanish Fork, Utah 84660",40.110268,-111.613352,1,rooftop,"51 N Spanish Fork Pkwy",,"Spanish Fork, UT 84660",51,"N Spanish Fork Pkwy",,,"Spanish Fork",UT,"Utah County",84660,US,Utah,gcod_usnfzvcxvzzxas4d9a7b46zzqh8p2,building_centroid
"1205 E 900 S, Springville, Utah 84663",40.155671,-111.589095,1,rooftop,"1205 E 900 S",,"Springville, UT 84663",1205,"E 900 S",,,Springville,UT,"Utah County",84663,US,"Utah AGRC (and individual UT counties)",gcod_usnp8uu7thdjuudb3v23ykduv7sa5,building_centroid
"150 N Skyhawk Blvd, Salem, Utah 84653",40.057391,-111.676243,1,rooftop,"150 N Sky Hawk Blvd",,"Salem, UT 84653",150,"N Sky Hawk Blvd",,,Salem,UT,"Utah County",84653,US,Utah,gcod_usnwbb6snx7ncxc6hvfvb4dbql4df,building_centroid
"99 N 300 W, Spanish Fork, Utah 84660",40.111051,-111.660679,1,rooftop,"99 N 300 W",,"Spanish Fork, UT 84660",99,"N 300 W",,,"Spanish Fork",UT,"Utah County",84660,US,"Utah AGRC (and individual UT counties)",gcod_usn32yh3lwp5xwu5wtjgbf4etjrd4,building_centroid
"1050 S Main, Payson, Utah 84651",40.028264,-111.733028,1,rooftop,"1050 S Main St",,"Payson, UT 84651",1050,"S Main St",,,Payson,UT,"Utah County",84651,US,Utah,gcod_usnlurfdhjtmptg984fd2yl2zxa98,building_centroid
"612 S Main, Spanish Fork, Utah 84660",40.101455,-111.658035,1,rooftop,"612 S Main St",,"Spanish Fork, UT 84660",612,"S Main St",,,"Spanish Fork",UT,"Utah County",84660,US,Utah,gcod_usntvf2vu3uht7l7x7j3nn59nlmkg,building_centroid
"161 E 400 North, Salem, Utah 84653",40.061626,-111.669829,1,rooftop,"161 E 400 N",,"Salem, UT 84653",161,"E 400 N",,,Salem,UT,"Utah County",84653,US,"Utah AGRC (and individual UT counties)",gcod_usneggxt3zjxb4pfard4awqg53fz9,building_centroid
"390 E 700 S, Mt Pleasant, Utah 84647",39.536412,-111.447809,1,range_interpolation,"390 E 700 S",,"Mount Pleasant, UT 84647",390,"E 700 S",,,"Mount Pleasant",UT,"Sanpete County",84647,US,"TIGER/Line® from the US Census Bureau",gcod_usn7h7v64a83vbb8wkeqxeqrr35p6,
"55 E 100 South, Mount Pleasant, Utah 84647",39.545134,-111.454436,1,range_interpolation,"55 E 100 S",,"Mount Pleasant, UT 84647",55,"E 100 S",,,"Mount Pleasant",UT,"Sanpete County",84647,US,"TIGER/Line® from the US Census Bureau",gcod_usnbsxryg2fzksl3dswge622lrzr9,
"53 S 100 E, Coalville, Utah 84017",40.915094,-111.394941,1,range_interpolation,"53 E 100 S",,"Coalville, UT 84017",53,"E 100 S",,,Coalville,UT,"Summit County",84017,US,"TIGER/Line® from the US Census Bureau",gcod_usncwahgf9up9cjc39ta749fxba6b,
"2750 N University Park Blvd, Layton, Utah 84041",41.099178,-111.984002,1,rooftop,"2750 N University Park Blvd",,"Layton, UT 84041",2750,"N University Park Blvd",,,Layton,UT,"Davis County",84041,US,"Utah AGRC (and individual UT counties)",gcod_usnx2bzdfcbadjsdxtzcsapye8s92,building_centroid
"1465 Edvalson Street, Ogden, Utah 84408",41.194928,-111.941996,1,rooftop,"1465 Edvalson St",,"Ogden, UT 84408",1465,"Edvalson St",,,Ogden,UT,"Weber County",84408,US,"Utah AGRC (and individual UT counties)",gcod_usntzr4w8k9as9s2766swq3juqn69,building_centroid
"2828 Harrison Blvd, Ogden, Utah 84403",41.21302,-111.94818,1,rooftop,"2828 Harrison Blvd",,"Ogden, UT 84403",2828,"Harrison Blvd",,,Ogden,UT,"Weber County",84403,US,"Utah AGRC (and individual UT counties)",gcod_usneqj25uaanwdv86thgfjkk6vrxa,building_centroid
"1080 9th Street, Ogden, Utah 84404",41.248654,-111.950985,1,rooftop,"1080 9th St",,"Ogden, UT 84404",1080,"9th St",,,Ogden,UT,"Weber County",84404,US,"Utah AGRC (and individual UT counties)",gcod_usnwfma5em79v3z4p2dfv2xbuemx4,building_centroid
"455 28th Street, Ogden, Utah 84401",41.214507,-111.969033,1,range_interpolation,"455 28th St",,"Ogden, UT 84401",455,"28th St",,,Ogden,UT,"Weber County",84401,US,"TIGER/Line® from the US Census Bureau",gcod_usn83wv7aufjw3je4y7hpplwc245g,
"790 W 12th St, Ogden, Utah 84404",41.2476,-111.998292,1,rooftop,"790 W 12th St",,"Ogden, UT 84404",790,"W 12th St",,,Ogden,UT,"Weber County",84404,US,"Utah AGRC (and individual UT counties)",gcod_usn2mq54uncknuq9ylmg28duztnee,building_centroid
"1950 Monroe Boulevard, Ogden, Utah 84401",41.231892,-111.957905,1,rooftop,"1950 Monroe Blvd",,"Ogden, UT 84401",1950,"Monroe Blvd",,,Ogden,UT,"Weber County",84401,US,"Utah AGRC (and individual UT counties)",gcod_usnccdfxdk5xmjb4yfhmyvm6cpg22,building_centroid
"11577 S 3600 W, South Jordan, Utah 84095",40.541054,-111.975965,1,rooftop,"11577 S 3600 W",,"South Jordan, UT 84095",11577,"S 3600 W",,,"South Jordan",UT,"Salt Lake County",84095,US,"Utah AGRC (and individual UT counties)",gcod_usnplv93v5lhwkf9t7tklupac3864,building_centroid
"1750 Kearns Blvd, Park City, Utah 84060",40.667149,-111.496825,1,rooftop,"1750 Kearns Blvd",,"Park City, UT 84060",1750,"Kearns Blvd",,,"Park City",UT,"Summit County",84060,US,"Utah AGRC (and individual UT counties)",gcod_usnjb62prqxdfdu5wpxp85lvvp3na,building_centroid
"210 N 600 E, Price, Utah 84501",39.602384,-110.799902,1,range_interpolation,"210 N 600 E",,"Price, UT 84501",210,"N 600 E",,,Price,UT,"Carbon County",84501,US,"TIGER/Line® from the US Census Bureau",gcod_usn7x866kgvle7s3caz487jflj879,
"100 W 500 N, Junction, Utah 84740",38.245065,-112.221909,1,rooftop,"100 W 500 N",,"Junction, UT 84740",100,"W 500 N",,,Junction,UT,"Piute County",84740,US,"Utah AGRC (and individual UT counties)",gcod_usnp7urbyz3y2sfemna2m8de9dhg9,building_centroid
"4795 W Patriot Ridge Drive, Herriman, Utah 84096",40.485114,-112.004299,1,rooftop,"4795 W Patriot Ridge Dr",,"Herriman, UT 84096",4795,"W Patriot Ridge Dr",,,Herriman,UT,"Salt Lake County",84096,US,"Utah AGRC (and individual UT counties)",gcod_usn3z2bg2l94tqk8rpjswgclvefda,building_centroid
"3570 N 650 E, Provo, Utah 84604",40.281258,-111.647514,1,range_interpolation,"3570 N 650 E",,"Provo, UT 84604",3570,"N 650 E",,,Provo,UT,"Utah County",84604,US,"TIGER/Line® from the US Census Bureau",gcod_usn48rjwhcrukcmf5jcgdcy3uylse,
"1199 North Lakeshore Dr, Provo, Utah 84601",40.249286,-111.715123,1,rooftop,"1199 N Lake Shore Dr",,"Provo, UT 84601",1199,"N Lake Shore Dr",,,Provo,UT,"Utah County",84601,US,"City of Provo",gcod_usntzd4c5tzqe8988sumnjfkrkudc,building_centroid
"636 N Independence Ave, Provo, Utah 84601",40.24279,-111.687406,1,rooftop,"636 N Independence Ave",,"Provo, UT 84601",636,"N Independence Ave",,,Provo,UT,"Utah County",84601,US,Utah,gcod_usnahexmz7rd39ac5cn2p88ylbz34,building_centroid
"280 W 940 N, Provo, Utah 84604",40.246722,-111.663605,1,rooftop,"280 W 940 N",,"Provo, UT 84604",280,"W 940 N",,,Provo,UT,"Utah County",84604,US,Utah,gcod_usn9fbcklmzap6uagr92a5e8twcza,building_centroid
"14787 S Academy Pkwy, Herriman, Utah 84096",40.482748,-111.97857,1,rooftop,"14787 S Academy Pkwy",,"Herriman, UT 84096",14787,"S Academy Pkwy",,,Herriman,UT,"Salt Lake County",84096,US,"Utah AGRC (and individual UT counties)",gcod_usn49pwdxr6l7pd6tuun2xwqw35ra,building_centroid
"140 W Church, Randolph, Utah 84064",41.665708,-111.189016,1,rooftop,"140 W Church St",,"Randolph, UT 84064",140,"W Church St",,,Randolph,UT,"Rich County",84064,US,"Utah AGRC (and individual UT counties)",gcod_usn7v5tmvvv3mydhy5awc8ktlrnyf,building_centroid
"3435 E Stonebridge Lane, Eagle Mountain, Utah 84005",40.379038,-111.977434,1,rooftop,"3435 E Stonebridge Ln",,"Eagle Mountain, UT 84005",3435,"E Stonebridge Ln",,,"Eagle Mountain",UT,"Utah County",84005,US,Utah,gcod_usn8mzx33lc9fwhd2baalj2r4hjue,building_centroid
"2250 South 1300 West, West Valley City, Utah 84119",40.722887,-111.929166,1,range_interpolation,"2250 S 1300 W",,"West Valley City, UT 84119",2250,"S 1300 W",,,"West Valley City",UT,"Salt Lake County",84119,US,"TIGER/Line® from the US Census Bureau",gcod_usnsgdnumhrv6zv7367uf5hlq99k3,
"1400 W Goodwin Ave, Salt Lake City, Utah 84116",40.794277,-111.931307,1,rooftop,"1400 Goodwin Ave",,"Salt Lake City, UT 84116",1400,"Goodwin Ave",,,"Salt Lake City",UT,"Salt Lake County",84116,US,"Utah AGRC (and individual UT counties)",gcod_usng7gyy9yccshvecmevpfzqrks5c,building_centroid
"2166 S 1700 E, Salt Lake City, Utah 84106",40.723159,-111.842682,1,rooftop,"2166 S 1700 E",,"Salt Lake City, UT 84106",2166,"S 1700 E",,,"Salt Lake City",UT,"Salt Lake County",84106,US,"Utah AGRC (and individual UT counties)",gcod_usnzw5u8t8wzqkm7rn9gyf2yqtgkd,building_centroid
"241 N 300 W, Salt Lake City, Utah 84103",40.774783,-111.900462,1,rooftop,"241 N 300 W",,"Salt Lake City, UT 84103",241,"N 300 W",,,"Salt Lake City",UT,"Salt Lake County",84103,US,"Utah AGRC (and individual UT counties)",gcod_usnrqb6n7mqz66l7a2r6scczk3449,building_centroid
"840 S 1300 E, Salt Lake City, Utah 84102",40.750866,-111.855198,1,rooftop,"840 S 1300 E",,"Salt Lake City, UT 84102",840,"S 1300 E",,,"Salt Lake City",UT,"Salt Lake County",84102,US,"Utah AGRC (and individual UT counties)",gcod_usnhhf35b3db3qch9glhjntn356qe,building_centroid
"1700 South State Street, Salt Lake City, Utah 84115",40.73351,-111.888207,1,range_interpolation,"1700 S State St",,"Salt Lake City, UT 84115",1700,"S State St",,,"Salt Lake City",UT,"Salt Lake County",84115,US,"TIGER/Line® from the US Census Bureau",gcod_usn394jn7lh7n9k9x7nhmrrpmd2y2,
"1234 S Main, Salt Lake City, Utah 84101",40.742517,-111.891902,1,rooftop,"1234 S Main St",,"Salt Lake City, UT 84101",1234,"S Main St",,,"Salt Lake City",UT,"Salt Lake County",84101,US,"Utah AGRC (and individual UT counties)",gcod_usnemak9lme9at78jgumg4zpjrqyg,building_centroid
"1560 S 200 E, Salt Lake City, Utah 84115",40.735796,-111.885929,1,rooftop,"1560 S 200 E",,"Salt Lake City, UT 84115",1560,"S 200 E",,,"Salt Lake City",UT,"Salt Lake County",84115,US,"Utah AGRC (and individual UT counties)",gcod_usngmt6d5xdlgue8j85k9uyn6j2c9,building_centroid
"2291 S 2000 E, Salt Lake City, Utah 84106",40.721386,-111.833234,1,rooftop,"2291 S 2000 E",,"Salt Lake City, UT 84106",2291,"S 2000 E",,,"Salt Lake City",UT,"Salt Lake County",84106,US,"Utah AGRC (and individual UT counties)",gcod_usnl3ev562x2dzsdwtnvp9djb7gad,building_centroid
"164 S 200 W, Monticello, Utah 84535",37.870708,-109.346344,1,range_interpolation,"164 S 200 W",,"Monticello, UT 84535",164,"S 200 W",,,Monticello,UT,"San Juan County",84535,US,"TIGER/Line® from the US Census Bureau",gcod_usns5relxm5x5uy4qpz6ycuncze6d,
"311 N 100 E, Blanding, Utah 84511",37.629822,-109.476746,1,rooftop,"311 N 100 E",,"Blanding, UT 84511",311,"N 100 E",,,Blanding,UT,"San Juan County",84511,US,"Utah AGRC (and individual UT counties)",gcod_usns47vr8tzbwqcgr4sqehmwd2wsf,building_centroid
"18 Cougar Ln, Monument Valley, Utah 84536",37.004942,-110.178691,1,rooftop,"18 Cougar Ln",,"Monument Valley, UT 84536",18,"Cougar Ln",,,"Monument Valley",UT,"San Juan County",84536,US,"Utah AGRC (and individual UT counties)",gcod_usnnmppb9ynanexfugmbc369h5nxd,building_centroid
"1415 Hwy 162, Montezuma Creek, Utah 84534",37.259804,-109.303868,0.83,nearest_rooftop_match,"1478 E Hwy 162nd Rd",,"Montezuma Creek, UT 84534",1478,"E Hwy 162nd Rd",,,"Montezuma Creek",UT,"San Juan County",84534,US,"Utah AGRC (and individual UT counties)",gcod_usn53fwshwphu78fjq7bm4d5nnr75,building_centroid
"79 Navajo Mtn High School Rd, Navajo Mt, Utah 84510",37.748946,-110.22691,0.5,place,,,"Aneth, UT 84510",,,,,Aneth,UT,"San Juan County",84510,US,"TIGER/Line® from the US Census Bureau",,
"350 W 400 N, Salina, Utah 84654",38.964139,-111.866007,1,rooftop,"350 W 400 N",,"Salina, UT 84654",350,"W 400 N",,,Salina,UT,"Sevier County",84654,US,"Utah AGRC (and individual UT counties)",gcod_usnesybz5ytzx5r6jm4tnpkkznss7,building_centroid
"495 West Center, Richfield, Utah 84701",38.767902,-112.092727,1,range_interpolation,"495 W Ctr",,"Richfield, UT 84701",495,"W Ctr",,,Richfield,UT,"Sevier County",84701,US,"TIGER/Line® from the US Census Bureau",gcod_usnfc9hl5hd92hrd46z27h9zk5kr9,
"430 W 100 S, Monroe, Utah 84754",38.629778,-112.129763,1,range_interpolation,"430 W 100 S",,"Monroe, UT 84754",430,"W 100 S",,,Monroe,UT,"Sevier County",84754,US,"TIGER/Line® from the US Census Bureau",gcod_usn6pvxwru52rcvbw3rrr36cwbzlf,
"555 W 100 N, Richfield, Utah 84701",38.769116,-112.094803,1,rooftop,"555 W 100 N",,"Richfield, UT 84701",555,"W 100 N",,,Richfield,UT,"Sevier County",84701,US,"Utah AGRC (and individual UT counties)",gcod_usn59u6v98854vxgbgfrj2zjux4l7,building_centroid
"100 W 500 N, Manti, Utah 84642",39.273357,-111.639242,1,rooftop,"100 W 500 N",,"Manti, UT 84642",100,"W 500 N",,,Manti,UT,"Sanpete County",84642,US,"Utah AGRC (and individual UT counties)",gcod_usnnhqzvuuh55qh5g528busy8tqd4,building_centroid
"35 E 600 S, Gunnison, Utah 84634",39.142989,-111.816775,1,rooftop,"35 E 600 S",,"Gunnison, UT 84634",35,"E 600 S",,,Gunnison,UT,"Sanpete County",84634,US,"Utah AGRC (and individual UT counties)",gcod_usnccm76nt2fnxeetkdbc3vn5r657,building_centroid
"39 S Main St, Manti, Utah 84642",39.264768,-111.636684,1,rooftop,"39 S Main St",,"Manti, UT 84642",39,"S Main St",,,Manti,UT,"Sanpete County",84642,US,"Utah AGRC (and individual UT counties)",gcod_usnft43e8d5zj9r6dujbprxyapkw2,building_centroid
"45 S 300 E, Kamas, Utah 84036",40.641961,-111.273406,1,rooftop,"45 S 300 E",,"Kamas, UT 84036",45,"S 300 E",,,Kamas,UT,"Summit County",84036,US,"Utah AGRC (and individual UT counties)",gcod_usn58qhm3f2a95j2xuys4lurrwsw8,building_centroid
"6407 N Business Park Loop Rd., Park City, Utah 84098",40.72274,-111.486988,0.89,nearest_rooftop_match,"6410 N Business Park Loop Rd",,"Park City, UT 84098",6410,"N Business Park Loop Rd",,,"Park City",UT,"Summit County",84098,US,"Utah AGRC (and individual UT counties)",gcod_usnywzqrnm74cqgbhpqv6wrere4f7,building_centroid
"575 N Cutler Dr, North Salt Lake, Utah 84054",40.852796,-111.932405,1,rooftop,"575 Cutler Dr",,"North Salt Lake, UT 84054",575,"Cutler Dr",,,"North Salt Lake",UT,"Davis County",84054,US,"Utah AGRC (and individual UT counties)",gcod_usn598q6thd8uhc8arenl2a3u6kw3,building_centroid
"867 South 800 West, Pleasant Grove, Utah 84062",40.352815,-111.752069,1,rooftop,"867 S 800 W",,"Pleasant Grove, UT 84062",867,"S 800 W",,,"Pleasant Grove",UT,"Utah County",84062,US,"Utah AGRC (and individual UT counties)",gcod_usnk26ngxdebeemgkulj3snsqmbu4,building_centroid
"380 E. 3090 S., Washington, Utah 84780",37.088048,-113.502879,1,rooftop,"380 E 3090 S",,"Washington, UT 84780",380,"E 3090 S",,,Washington,UT,"Washington County",84780,US,Washington,gcod_usnplbn57q4k8vrfe7keupl7cbd5g,building_centroid
"351 W University Blvd, Cedar City, Utah 84720",37.677638,-113.066483,0.83,nearest_rooftop_match,"290 W University Blvd",,"Cedar City, UT 84720",290,"W University Blvd",,,"Cedar City",UT,"Iron County",84720,US,"Utah AGRC (and individual UT counties)",gcod_usnjq3p7t2893rs33rwsq8wknhtt8,building_centroid
"225 South 700 East, St George, Utah 84770",37.105246,-113.567382,1,rooftop,"225 S 700 E",,"Saint George, UT 84770",225,"S 700 E",,,"Saint George",UT,"Washington County",84770,US,"Utah AGRC (and individual UT counties)",gcod_usnu2qkjpraxnny4aj6gx3pqztcy8,building_centroid
"14942 S 560 West, Bluffdale, Utah 84065",40.578561,-111.907476,0.64,street_center,"S 560 W",,"Sandy, UT 84070",,"S 560 W",,,Sandy,UT,"Salt Lake County",84070,US,"TIGER/Line® from the US Census Bureau",gcod_ussgh8c9mxlrutzc,
"267 Aggie Blvd., Vernal, Utah 84078",40.450118,-109.564492,0.83,nearest_rooftop_match,"330 S Aggie Blvd",,"Vernal, UT 84078",330,"S Aggie Blvd",,,Vernal,UT,"Uintah County",84078,US,"Utah AGRC (and individual UT counties)",gcod_usnpqvjbe55bmfacmp54z3xj9v4b8,building_centroid
"525 E Main, Eureka, Utah 84628",39.92574,-112.128523,0.9,range_interpolation,"525 Main St",,"Eureka, UT 84628",525,"Main St",,,Eureka,UT,"Juab County",84628,US,"TIGER/Line® from the US Census Bureau",gcod_usnvwhrfdpvtam97elhw925l559jc,
"5300 N Aberdeen Lane, Stansbury Park, Utah 84074",40.626712,-112.304344,0.83,nearest_rooftop_match,"5369 N Aberdeen Ln",,"Tooele, UT 84074",5369,"N Aberdeen Ln",,,Tooele,UT,"Tooele County",84074,US,"Utah AGRC (and individual UT counties)",gcod_usn58bfkffdfqtvh6lwcq4u5vc339,building_centroid
"155 E Cherry St, Grantsville, Utah 84029",40.596097,-112.458261,1,rooftop,"155 E Cherry St",,"Grantsville, UT 84029",155,"E Cherry St",,,Grantsville,UT,"Tooele County",84029,US,"Utah AGRC (and individual UT counties)",gcod_usnutvga7qqew8t5b3yvjj8a52dhh,building_centroid
"301 W Vine, Tooele, Utah 84074",40.53046,-112.307885,1,range_interpolation,"301 W Vine St",,"Tooele, UT 84074",301,"W Vine St",,,Tooele,UT,"Tooele County",84074,US,"TIGER/Line® from the US Census Bureau",gcod_usntk8jevc5lcsk46es879knjy5b6,
"110 Wildcat Blvd, Wendover, Utah 84083",40.736314,-114.0375,1,rooftop,"110 Wildcat Blvd",,"Wendover, UT 84083",110,"Wildcat Blvd",,,Wendover,UT,"Tooele County",84083,US,"Utah AGRC (and individual UT counties)",gcod_usnavhmwflbttgv796rzsjkqz6ny3,building_centroid
"211 S Tooele Blvd, Tooele, Utah 84074",40.526116,-112.324312,1,rooftop,"211 S Tooele Blvd",,"Tooele, UT 84074",211,"S Tooele Blvd",,,Tooele,UT,"Tooele County",84074,US,"Utah AGRC (and individual UT counties)",gcod_usnh8kq2vjpn759ge927a2t8ht5b2,building_centroid
"211 S Tooele Blvd, Tooele, Utah 84074",40.526116,-112.324312,1,rooftop,"211 S Tooele Blvd",,"Tooele, UT 84074",211,"S Tooele Blvd",,,Tooele,UT,"Tooele County",84074,US,"Utah AGRC (and individual UT counties)",gcod_usnh8kq2vjpn759ge927a2t8ht5b2,building_centroid
"5010 E School Street, Dugway, Utah 84022",40.226552,-112.747702,0.93,rooftop,"5010 SE School St",,"Dugway, UT 84022",5010,"SE School St",,,Dugway,UT,"Tooele County",84022,US,"Utah AGRC (and individual UT counties)",gcod_usnuff65r3ge9gkgvke89mztw73j5,building_centroid
"1880 W 500 N, Vernal, Utah 84078",40.462497,-109.56331,1,range_interpolation,"1880 W 500 N",,"Vernal, UT 84078",1880,"W 500 N",,,Vernal,UT,"Uintah County",84078,US,"TIGER/Line® from the US Census Bureau",gcod_usn2h55zrjyzgfe2eemtkbvctdqw7,
"559 N 1700 W, Vernal, Utah 84078",40.46384,-109.561465,1,rooftop,"559 N 1700 W",,"Vernal, UT 84078",559,"N 1700 W",,,Vernal,UT,"Uintah County",84078,US,"Utah AGRC (and individual UT counties)",gcod_usn9ay3c3drrc6a2wyta4cqkjurj7,building_centroid
"998 E 7500 S, Fort Duchesne, Utah 84026",40.284251,-109.857451,0.89,nearest_rooftop_match,"989 7500 E",,"Fort Duchesne, UT 84026",989,"7500 E",,,"Fort Duchesne",UT,"Uintah County",84026,US,"Utah AGRC (and individual UT counties)",gcod_usnjk9d3tyndbw39r2wuug5l9wr6e,building_centroid
"1091 N Bluff St, Saint George, Utah 84770",37.124948,-113.601188,1,rooftop,"1091 N Bluff St",,"Saint George, UT 84770",1091,"N Bluff St",,,"Saint George",UT,"Washington County",84770,US,Washington,gcod_usnqnr8mwwx6umbg9sujbvvejmst2,building_centroid
"550 E 300 S Rm 2025, Kaysville, Utah 84037",41.029107,-111.925126,1,rooftop,"550 E 300 S",2025,"Kaysville, UT 84037",550,"E 300 S",,2025,Kaysville,UT,"Davis County",84037,US,"Utah AGRC (and individual UT counties)",gcod_usn4hvpewkncbxa9ntsrdtkhygglb-3gmhmwl4vegl8,building_centroid
"675 E. 2100 South, Salt Lake City, Utah 84106",40.725873,-111.872664,1,rooftop,"675 E 2100 S",,"Salt Lake City, UT 84106",675,"E 2100 S",,,"Salt Lake City",UT,"Salt Lake County",84106,US,"Utah AGRC (and individual UT counties)",gcod_usn4dg559sqe8bj53vkfcd6d84wz9,building_centroid
"940 W 800 S, Orem, Utah 84058",40.282834,-111.717051,1,range_interpolation,"940 W 800 S",,"Orem, UT 84058",940,"W 800 S",,,Orem,UT,"Utah County",84058,US,"TIGER/Line® from the US Census Bureau",gcod_usn8ha4mrkn8g9jbxsf97ytzjze58,
"350 E Baird Circle (3605 South), South Salt Lake, Utah 84115",40.692394,-111.88154,1,rooftop,"350 E Baird Cir",3605,"South Salt Lake, UT 84115",350,"E Baird Cir",,3605,"South Salt Lake",UT,"Salt Lake County",84115,US,"Utah AGRC (and individual UT counties)",gcod_usn4xavepkh4atp7y4zjl2bq4nd8g-al38ambfwsa52,building_centroid
"3901 West Waterberry Drive, Lehi, Utah 84043",40.415036,-111.904264,0.7,street_center,"W Waterbury Dr",,"Lehi, UT 84043",,"W Waterbury Dr",,,Lehi,UT,"Utah County",84043,US,"TIGER/Line® from the US Census Bureau",gcod_uss2cqe3gvk4uta9,
"5120 S. 1050 W., Riverdale, Utah 84405",41.169137,-112.006295,1,rooftop,"5120 S 1050 W",,"Ogden, UT 84405",5120,"S 1050 W",,,Ogden,UT,"Weber County",84405,US,"Utah AGRC (and individual UT counties)",gcod_usnkby2nqjj29fz3x8hyfnj73bwkg,building_centroid
"1655 E 3300 S, Salt Lake City, Utah 84106",40.700341,-111.844609,1,rooftop,"1655 E 3300 S",,"Millcreek, UT 84106",1655,"E 3300 S",,,Millcreek,UT,"Salt Lake County",84106,US,"Utah AGRC (and individual UT counties)",gcod_usneh2zzq3z8qfg7gjhcfa7enyrjg,building_centroid
"742 Harrison Blvd, Ogden, Utah 84404",41.251046,-111.947802,1,rooftop,"742 Harrison Blvd",,"Ogden, UT 84404",742,"Harrison Blvd",,,Ogden,UT,"Weber County",84404,US,"Utah AGRC (and individual UT counties)",gcod_usnzb2s59um2tda7gw23gcdggp5vb,building_centroid
"742 Harrison Blvd, Ogden, Utah 84404",41.251046,-111.947802,1,rooftop,"742 Harrison Blvd",,"Ogden, UT 84404",742,"Harrison Blvd",,,Ogden,UT,"Weber County",84404,US,"Utah AGRC (and individual UT counties)",gcod_usnzb2s59um2tda7gw23gcdggp5vb,building_centroid
"310 E 4500 S, Murray, Utah 84107",40.673969,-111.882045,1,rooftop,"310 E 4500 S",,"Salt Lake City, UT 84107",310,"E 4500 S",,,"Salt Lake City",UT,"Salt Lake County",84107,US,"Utah AGRC (and individual UT counties)",gcod_usnw74yk437m35ld7hfymnesnzr34,building_centroid
"2650 South Decker Lake Lane, West Valley City, Utah 84119",40.71225,-111.943987,1,rooftop,"2650 Decker Lake Ln",,"West Valley City, UT 84119",2650,"Decker Lake Ln",,,"West Valley City",UT,"Salt Lake County",84119,US,"Utah AGRC (and individual UT counties)",gcod_usnb9uwshhg65z84ue93tj4ntte38,building_centroid
"495 N 1500 W, Marriott-slaterville City, Utah 84404",41.269044,-112.016288,1,rooftop,"495 N 1500 W",,"Ogden, UT 84404",495,"N 1500 W",,,Ogden,UT,"Weber County",84404,US,"Utah AGRC (and individual UT counties)",gcod_usnk7kvupt85tq5fbhreyhc76efrg,building_centroid
"4230 N University Ave, Provo, Utah 84604",40.289596,-111.657634,1,rooftop,"4230 N University Ave",,"Provo, UT 84604",4230,"N University Ave",,,Provo,UT,"Utah County",84604,US,Utah,gcod_usnacutt8qtqkhjayunm88epw5bp6,building_centroid
"930 S 500 E, Heber City, Utah 84032",40.496182,-111.406305,1,rooftop,"930 S 500 E",,"Heber City, UT 84032",930,"S 500 E",,,"Heber City",UT,"Wasatch County",84032,US,"Utah AGRC (and individual UT counties)",gcod_usnrewbqfgbmntbepdbmy4vb3pmd4,building_centroid
"4430 S Crimson Cliffs Way, Washington, Utah 84780",37.071288,-113.508629,1,rooftop,"4430 S Crimson Cliffs Way",,"Washington, UT 84780",4430,"S Crimson Cliffs Way",,,Washington,UT,"Washington County",84780,US,Washington,gcod_usnadah3rm6puzp96ljgz9pkz9y98,building_centroid
"1385 N Lava Flow Dr, St George, Utah 84770",37.132353,-113.635169,1,rooftop,"1385 N Lava Flow Dr",,"Saint George, UT 84770",1385,"N Lava Flow Dr",,,"Saint George",UT,"Washington County",84770,US,Washington,gcod_usnu47wmkuw5zafaz9lenm3xqns9c,building_centroid
"828 E Desert Hills Drive, Saint George, Utah 84790",37.050911,-113.567236,1,rooftop,"828 E Desert Hills Dr",,"Saint George, UT 84790",828,"E Desert Hills Dr",,,"Saint George",UT,"Washington County",84790,US,Washington,gcod_usn6wyll9y472rs25hh6hhyjh5lpa,building_centroid
"345 W Tiger Blvd, Hurricane, Utah 84737",37.145366,-113.367458,0.5,place,,,"Hurricane, UT 84737",,,,,Hurricane,UT,"Washington County",84737,US,"TIGER/Line® from the US Census Bureau",,
"2850 E 750 N, St George, Utah 84790",37.119383,-113.525322,1,rooftop,"2850 E 750 N",,"Saint George, UT 84790",2850,"E 750 N",,,"Saint George",UT,"Washington County",84790,US,"Utah AGRC (and individual UT counties)",gcod_usnt6dzdw8jpwffbf72ukr9ldec96,building_centroid
"350 E 700 S, St George, Utah 84770",37.095714,-113.576382,1,rooftop,"350 E 700 S",,"Saint George, UT 84770",350,"E 700 S",,,"Saint George",UT,"Washington County",84770,US,"Utah AGRC (and individual UT counties)",gcod_usnejuxlchdheagb8qxkvt5bd3ccd,building_centroid
"121 W. Tabernacle, Saint George, Utah 84770",37.108058,-113.585863,1,range_interpolation,"121 W Tabernacle St",,"Saint George, UT 84770",121,"W Tabernacle St",,,"Saint George",UT,"Washington County",84770,US,"TIGER/Line® from the US Census Bureau",gcod_usnbs97dkxnqb8yejkgxvu937gjcg,
"565 S 200 E, Enterprise, Utah 84725",37.564793,-113.715579,1,rooftop,"565 S 200 E",,"Enterprise, UT 84725",565,"S 200 E",,,Enterprise,UT,"Washington County",84725,US,Washington,gcod_usnl9xnl9dwmqbzgsv7a2v5hwvutg,building_centroid
"880 N. Carling St., Hildale, Utah 84784",37.005,-112.9683,1,rooftop,"880 N Carling St",,"Hildale, UT 84784",880,"N Carling St",,,Hildale,UT,"Washington County",84784,US,Mohave,gcod_usn9pkxlgdxatb9grebcxl9crregd,building_centroid
"2410 E Riverside Dr, St George, Utah 84790",37.10262,-113.53166,1,rooftop,"2410 E Riverside Dr",,"Saint George, UT 84790",2410,"E Riverside Dr",,,"Saint George",UT,"Washington County",84790,US,Washington,gcod_usnprux9gtpfqw8b7y6y2vbwfwyfa,building_centroid
"225 N 400 W, Bicknell, Utah 84715",38.306286,-111.426509,0.93,range_interpolation,"225 W 400 N",,"Torrey, UT 84775",225,"W 400 N",,,Torrey,UT,"Wayne County",84775,US,"TIGER/Line® from the US Census Bureau",gcod_usnfm885tzuwdjghqlnaz92t9lgw5,
"430 W Weber High Dr, Ogden, Utah 84414",41.321517,-111.986459,1,range_interpolation,"430 Weber High Dr",,"Ogden, UT 84414",430,"Weber High Dr",,,Ogden,UT,"Weber County",84414,US,"TIGER/Line® from the US Census Bureau",gcod_usn7dgv48ylc6ah8sr62l82vlryq4,
"1900 N 4700 W, Plain City, Utah 84404",41.292546,-112.092795,1,range_interpolation,"1900 N 4700 W",,"Ogden, UT 84404",1900,"N 4700 W",,,Ogden,UT,"Weber County",84404,US,"TIGER/Line® from the US Census Bureau",gcod_usnlmw2dm6lbjw6dfzvhlsbux933g,
"1007 W 12th Street, Ogden, Utah 84404",41.244671,-112.002688,1,range_interpolation,"1007 W 12th St",,"Ogden, UT 84404",1007,"W 12th St",,,Ogden,UT,"Weber County",84404,US,"TIGER/Line® from the US Census Bureau",gcod_usn2mq54uncknuq99jmhd4p6fwna4,
"251 E 4800 S, Ogden, Utah 84405",41.175967,-111.975225,1,rooftop,"251 E 4800 S",,"Ogden, UT 84405",251,"E 4800 S",,,Ogden,UT,"Weber County",84405,US,"Utah AGRC (and individual UT counties)",gcod_usnp9arhmnr8rhc8k9c6n88cfhxy4,building_centroid
"2150 W 4800 S, Roy, Utah 84067",41.176197,-112.031481,1,range_interpolation,"2150 W 4800 S",,"Roy, UT 84067",2150,"W 4800 S",,,Roy,UT,"Weber County",84067,US,"TIGER/Line® from the US Census Bureau",gcod_usnuvpb3awm56fv3rja8ymyjctfr6,
"955 W 12th Street, Ogden, Utah 84404",41.244672,-112.002843,1,range_interpolation,"955 W 12th St",,"Ogden, UT 84404",955,"W 12th St",,,Ogden,UT,"Weber County",84404,US,"TIGER/Line® from the US Census Bureau",gcod_usn2mq54uncknuq9tabpjqaq762j9,
"955 W 12th Street, Ogden, Utah 84404",41.244672,-112.002843,1,range_interpolation,"955 W 12th St",,"Ogden, UT 84404",955,"W 12th St",,,Ogden,UT,"Weber County",84404,US,"TIGER/Line® from the US Census Bureau",gcod_usn2mq54uncknuq9tabpjqaq762j9,
"4251 Shadow Mountain Drive, Park City, Utah 84098",40.692049,-111.542447,0.95,range_interpolation,"4251 Shadow Mtn",,"Park City, UT 84098",4251,"Shadow Mtn",,,"Park City",UT,"Summit County",84098,US,"TIGER/Line® from the US Census Bureau",gcod_usnqdehpuk8rlc6658mh8cx83q8s9,
