"address","latitude","longitude"
"1921 Warrior Parkway, Alabaster, Alabama 35007",33.221971002976,-86.846392204448
"2446 County Road 77, Billingsley, Alabama 36006",32.66066490457,-86.70183105343
"701 Third St, Andalusia, Alabama 36420",31.315339990573,-86.470859975773
"402 E Mccord Ave, Albertville, Alabama 35950",34.263173921932,-86.205852749077
"605 Hwy 98, Daphne, Alabama 36526",30.584475375053,-87.899794340087
"1315 Upper Kingston Rd, Prattville, Alabama 36067",32.499771007368,-86.46984127087
"655 Hwy 31 North, Athens, Alabama 35611",34.810782643473,-86.948185219844
"21630 Highway 59 South, Robertsdale, Alabama 36567",30.540400017305,-87.706530032543
"1 Pride Pl, Foley, Alabama 36535",30.381223663836,-87.687812817902
"9300 Champions Way, Daphne, Alabama 36526",30.639043576382,-87.86410645948
"511 Arabian Dr Ne, Arab, Alabama 35016",34.32851386674,-86.488263025088
"1701 E Samford Avenue, Auburn, Alabama 36830",32.599538083054,-85.446244944121
"2360 Highway 31 North, Deatsville, Alabama 36022",32.618457312897,-86.482876697463
"1301 Woodstock Ave, Anniston, Alabama 36207",33.66321742601,-85.821748551416
"One Tiger Dr, Bay Minette, Alabama 36507",30.893577333025,-87.79432745082
"405 South Street East, Athens, Alabama 35611",34.799880009994,-86.965850879171
"165 S Midway Street, Clayton, Alabama 36016",31.868609356349,-85.449246591589
"201 Case Avenue Se, Attalla, Alabama 35954",33.994504068991,-86.112696484041
"13355main Street, Elberta, Alabama 36530",30.419609688998,-87.598349640796
"18800 Greeno Rd, Fairhope, Alabama 36532",30.498791558233,-87.886115177898
"23908 Canal Road, Orange Beach, Alabama 36561",30.290234593515,-87.617709242495
"One Plaza De Toros, Spanish Fort, Alabama 36527",30.688068974032,-87.853209874667
"2708 Dutch Bend St, Autaugaville, Alabama 36003",32.433785640424,-86.659531156763
"4950 Premiere Parkway, Bessemer, Alabama 35022",33.369464126122,-87.000584437978
"225 Heard Blvd, Alexander City, Alabama 35010",32.937755410677,-85.952245087042
"1800 13th Ave S, Birmingham, Alabama 35205",33.497186099219,-86.798349518788
"100 Tiger Dr, Greenville, Alabama 36037",31.826953601932,-86.64816067928
"4734 Truman Aldrich Parkway, West Blocton, Alabama 35184",33.112143600154,-87.129581496392
"900 Springville Rd, Birmingham, Alabama 35215",33.610124700828,-86.683325620138
"400 Abraham Woods Jr Blvd, Birmingham, Alabama 35204",33.51530446369,-86.829880106649
"71 High School St, Cleveland, Alabama 35049",33.993160572825,-86.574616155107
"2800 Wilson Rd Sw, Birmingham, Alabama 35221",33.454661996771,-86.883670975869
"1300 Avenue F Ensley, Birmingham, Alabama 35218",33.517912564908,-86.891679335064
"125 Atwood Road, Hayden, Alabama 35079",33.890836648326,-86.769289944212
"1950 Sand Rock Avenue, Sand Rock, Alabama 35983",34.240909979791,-85.767349994633
"353 Stadium Dr, Alexandria, Alabama 36250",33.77559637453,-85.885622658461
"220 Birmingham Rd, Centreville, Alabama 35042",32.950770543223,-87.144321788587
"3900 24th Street North, Birmingham, Alabama 35207",33.558797862924,-86.823411118137
"501 Highway 29, Valley, Alabama 36854",32.801983008286,-85.180928865851
"4040 Susan Moore Rd, Blountsville, Alabama 35031",34.083577793664,-86.429039365957
"81 College St, Blountsville, Alabama 35031",34.085485643423,-86.589070857718
"910 Warrior Dr, Centre, Alabama 35960",34.164522228947,-85.659121634589
"5620 First Ave N, Birmingham, Alabama 35212",33.541230755486,-86.751427414556
"18770 State Highway 75, Remlap, Alabama 35133",33.831700189739,-86.583784992197
"907 Brown St, Boaz, Alabama 35957",34.210239396121,-86.165072718862
"135 Pinson Rd, Anniston, Alabama 36201",33.652466431532,-85.882964996169
"221 North Garland Road, Mckenzie, Alabama 36456",31.542195093705,-86.71780545841
"4401 Saks Rd, Anniston, Alabama 36206",33.70183183001,-85.837638400889
"866 Highway 31 South, Georgiana, Alabama 36033",31.630158014305,-86.729713361743
"1835 Douglas Ave, Brewton, Alabama 36426",31.137563046668,-87.068826505061
"4141 Pleasant Valley Rd, Jacksonville, Alabama 36265",33.885086008847,-85.814900638897
"911 Sardis Road, Union Springs, Alabama 36089",32.129480870956,-85.724384586478
"350 County Highway 12, Oneonta, Alabama 35121",33.888620766878,-86.397609097367
"318 Avc Drive, Lafayette, Alabama 36862",32.894842,-85.416772
"77 School Rd, Locust Fork, Alabama 35097",33.908036912627,-86.617468186565
"100 Cherokee Trl, Ohatchee, Alabama 36271",33.785588938718,-86.003339649221
"214 1st Ave Se, Lafayette, Alabama 36862",32.899123723106,-85.398475150937
"917 Clairmont Dr, Weaver, Alabama 36277",33.746932768238,-85.835005516119
"250 White Plains Rd, Anniston, Alabama 36207",33.747414450511,-85.687684428943
"3900 24th St N, Birmingham, Alabama 35207",33.558797862924,-86.823411118137
"11338 County Road 15, Maplesville, Alabama 36750",32.828285586937,-86.785669428878
"1 Bob Riley Drive, Lineville, Alabama 36266",33.291346171541,-85.787271012453
"1214 7th St S, Clanton, Alabama 35045",32.822432996663,-86.615989694849
"3655 Old Highway 9, Cedar Bluff, Alabama 35959",34.220158152342,-85.604979941166
"54 Opportunity Dr, Thorsby, Alabama 35171",32.914471115077,-86.716263539179
"201 College Street, Kinston, Alabama 36453",31.220988719215,-86.171271500045
"277 Tom Orr Drive, Butler, Alabama 36904",32.079508026882,-88.232255415067
"151 S Church, Grove Hill, Alabama 36451",31.71321926079,-87.775064444053
"1256 Al Highway 139, Maplesville, Alabama 36750",32.804667200977,-86.880008313802
"2430 County Road 29, Spring Garden, Alabama 36275",33.98539000842,-85.542850021991
"10941 Highway 17, Gilbertown, Alabama 36908",31.842343309821,-88.31473593056
"520 Evans Bridge Rd, Heflin, Alabama 36264",33.649165538867,-85.571035676357
"850 High School Dr, Cherokee, Alabama 35616",34.765528320697,-87.963688127229
"21045 Main St, Ranburne, Alabama 36273",33.52290299776,-85.347934484463
"8879 N Main St, Brantley, Alabama 36009",31.592291541494,-86.255371173498
"760 Trojan Way, Gaylesville, Alabama 35973",34.270800517067,-85.560284799691
"50 12th Ave, Chickasaw, Alabama 36611",30.756352550817,-88.08354660045
"210 South Tyler Street, New Brockton, Alabama 36351",31.380242868969,-85.935155444748
"321 Stanley Dr, Jackson, Alabama 36545",31.548958320262,-87.879214122354
"202 County Road 510, Verbena, Alabama 36091",32.749381971285,-86.507933723232
"50 12th Ave, Chickasaw, Alabama 36611",30.756352550817,-88.08354660045
"29256 Highway 87, Jack, Alabama 36346",31.558264653429,-86.013773966959
"4314 County Road 1141, Cullman, Alabama 35057",34.239359179973,-86.957993533975
"1989 Jaguar Drive, Evergreen, Alabama 36401",31.43114998072,-86.937210041535
"1434 Montgomery Hwy, Highland Home, Alabama 36041",31.921305870506,-86.314101441496
"841 Welcome Rd, Cullman, Alabama 35058",34.254017696337,-86.68810850209
"194 First Ave, Luverne, Alabama 36049",31.714325597906,-86.27446309831
"6825 Woodmont Dr, Tuscumbia, Alabama 35674",34.668664028446,-87.698465690361
"25195 Us Highway 31, Jemison, Alabama 35085",32.965429738224,-86.747391119174
"1989 Jaguar Rd, Evergreen, Alabama 36401",31.43114998072,-86.937210041535
"160 New Hope Road, Holly Pond, Alabama 35083",34.175743099149,-86.618410757662
"210 Good Hope School Rd, Cullman, Alabama 35057",34.102067336011,-86.880504173668
"510 13th St Ne, Cullman, Alabama 35055",34.188956015519,-86.843327601913
"9010 County Road 109, Bremen, Alabama 35033",33.982281458762,-87.030537089842
"2200 High School St, Leighton, Alabama 35646",34.696411663241,-87.524954519907
"1251 Coosa River Pkwy, Wetumpka, Alabama 36092",32.552317995739,-86.218855124649
"97 Coosa County Road 75, Rockford, Alabama 35136",33.003308450613,-86.198158762997
"801 Commercial St, Hanceville, Alabama 35077",34.061137728422,-86.760791180078
"165 High School Road, Vinemont, Alabama 35179",34.242906206207,-86.865820552002
"12548 Falco Road, Andalusia, Alabama 36420",31.152651979983,-86.61261632054
"17600 Us Highway 31 N, Cullman, Alabama 35058",34.22340634186,-86.858953818711
"10425 Holtville Rd, Deatsville, Alabama 36022",32.636288652087,-86.325036358784
"335 5th Ave, Plantersville, Alabama 36758",32.661721843664,-86.928646166632
"910 Somerville Road Se, Decatur, Alabama 35601",34.594242376986,-86.972625424088
"22114 Begonia St, Florala, Alabama 36442",31.003560653685,-86.336156043161
"264 Creel Richardson Drive, Ariton, Alabama 36311",31.602570839041,-85.722472698299
"28551 Barrow Road, Red Level, Alabama 36474",31.401963667129,-86.61241250216
"235 1st Ave, Valley Head, Alabama 35989",34.563651139814,-85.615356806226
"910 Somerville Road, Decatur, Alabama 35601",34.606086409002,-86.971834258629
"3004 Modaus Road, Decatur, Alabama 35601",34.561272637392,-87.0501592899
"13011 Highway 227, Geraldine, Alabama 35974",34.352543266365,-86.001654660029
"1166 Dallas Road 115, Orrville, Alabama 36767",32.292025460946,-87.234751778417
"5405 Co Road 28, Crossville, Alabama 35962",34.290239994549,-85.996320036238
"4300 Main St, Millbrook, Alabama 36054",32.493153831492,-86.36589605459
"155 N College St, Eclectic, Alabama 36024",32.633487366878,-86.0300595569
"7975 Us Highway 80 E, Selma, Alabama 36701",32.32721997999,-86.92840996521
"153 Church St, Fyffe, Alabama 35971",34.452423645224,-85.90370894298
"76 Chavies Rd, Rainsville, Alabama 35986",34.482410002724,-85.822780023246
"133 2nd Street N, Sylvania, Alabama 35988",34.564243679877,-85.814267227514
"1064 Crabapple Ln, Ider, Alabama 35981",34.712189987633,-85.675379981136
"2565 Co Rd 60, Skipperville, Alabama 36374",31.558674287381,-85.496693358169
"11470 County Road 59, Midland City, Alabama 36350",31.325420294243,-85.505241675479
"626 N Daleville Ave, Daleville, Alabama 36322",31.314654084736,-85.711297210981
"323 W Selma Street, Dothan, Alabama 36301",31.209941114163,-85.394955282687
"701 Hwy 80 W, Demopolis, Alabama 36732",32.494773512005,-87.845408193695
"29448 Straughn School Road, Andalusia, Alabama 36421",31.392039257737,-86.41571638429
"371 Tiger Dr, Elba, Alabama 36323",31.425473415036,-86.105280747028
"802 S Valley Ave, Collinsville, Alabama 35961",34.254360000721,-85.868789966157
"517 Micanopy Street, Weumpka, Alabama 36092",32.546281229028,-86.215793213908
"3209 Reeves St, Dothan, Alabama 36303",31.267280881883,-85.381366035613
"202 Tiger Drive, Fayette, Alabama 35555",33.704282864991,-87.820235697361
"800 8th St, Red Bay, Alabama 35582",34.435561510915,-88.137427390752
"801 Andrew Jackson Street, East Brewton, Alabama 36426",31.091589056786,-87.055803128943
"2361 School Drive, Southside, Alabama 35907",33.921133048544,-86.03427770936
"255 Highway 80, Russellville, Alabama 35654",34.525107291772,-87.61832190101
"7360 County Road 49, Fayette, Alabama 35555",33.82860517134,-87.738323853858
"4515 Elm St, Walnut Grove, Alabama 35990",34.063790014043,-86.302529986157
"1801 Boll Weevil Circle, Enterprise, Alabama 36330",31.327760143755,-85.887346137009
"600 East 15th Ave, Gulf Shores, Alabama 36547",30.268429057867,-87.677033568496
"1201 Bradshaw Dr, Florence, Alabama 35630",34.833044031637,-87.661712353953
"4550 Us Highway 411, Gadsden, Alabama 35901",34.068340004454,-85.926840010065
"14221 Highway 11 South, Eutaw, Alabama 35462",32.823709986556,-87.931280037356
"14220 Highway 187, Russellville, Alabama 35653",34.474838118441,-87.865984555657
"8 Sporman St, Headland, Alabama 36345",31.348898827301,-85.339863552334
"1420 Church St, Sardis City, Alabama 35956",34.177141637187,-86.123880649733
"65 School St, Phil Campbell, Alabama 35581",34.349370004772,-87.707320026917
"2001 20th St, Haleyville, Alabama 35565",34.226237114701,-87.60836394022
"803 Lonesome Bend Rd, Glencoe, Alabama 35905",33.965966906335,-85.934627979906
"1221 Baptist Hill Road, Greensboro, Alabama 36744",32.708307398813,-87.588290799217
"831 West Washington Street, Eufaula, Alabama 36027",31.887923348192,-85.157215424908
"50 Wildcat Way, Moundville, Alabama 35474",32.999095024075,-87.620553834187
"201 45th St Ne, Fort Payne, Alabama 35967",34.488365344931,-85.674328052287
"301 Lily St, Hartford, Alabama 36344",31.096592895313,-85.699196462435
"1865 Appalachia Rd, Hokes Bluff, Alabama 35903",34.017897313847,-85.87021527799
"610 Valley Rd, Fairfield, Alabama 35064",33.490153160918,-86.908139012582
"505 Panther Dr, Geneva, Alabama 36340",31.042291777667,-85.879094041316
"530 Lake Dr, Eufaula, Alabama 36027",31.91708250696,-85.140983206538
"8250 County Road 23, Vina, Alabama 35593",34.373674003581,-88.059089979184
"18242 Highway 18 E, Berry, Alabama 35546",33.662922561012,-87.599009912274
"1215 S Presley St, Atmore, Alabama 36502",31.007877891001,-87.487963390366
"14227 Highway 431 South, Guntersville, Alabama 35976",34.320277086985,-86.311952697175
"209 N Broad St, Samson, Alabama 36477",31.115187123693,-86.048871527474
"Esto Hwy, Slocomb, Alabama 36375",31.071208229997,-85.614614859563
"21200 Highway 31, Flomaton, Alabama 36441",31.006965360212,-87.268842693252
"1917 Black Creek Parkway, Gadsden, Alabama 35904",33.993064692243,-86.036161010096
"290 County Road 63, Woodville, Alabama 35776",34.622524724603,-86.271054250113
"2023 Wildcat Parkway, Birmingham, Alabama 35127",33.627042692912,-86.776323684853
"1000 Buccaneer Drive, Hoover, Alabama 35244",33.345536507902,-86.836513334956
"4700 Jaguar Drive, Hoover, Alabama 35242",33.391252296693,-86.728913125921
"200 W Church St, Columbia, Alabama 36319",31.293082874573,-85.114506110025
"1000 George Douthit Dr Sw, Jacksonville, Alabama 36265",33.789311313726,-85.777772836421
"897 County Road 25, Scottsboro, Alabama 35768",34.81331970502,-86.124345524479
"300 Explorer Boulevard, Huntsville, Alabama 35806",34.729661684312,-86.69528804204
"2500 Meridian Street Nw, Huntsville, Alabama 35811",34.756130128648,-86.57894613907
"607 Church St, Ashford, Alabama 36312",31.183658605785,-85.233046290004
"141 Al Highway 71, Section, Alabama 35771",34.581315740235,-85.979146242379
"1501 Viking Drive, Jasper, Alabama 35501",33.837597723111,-87.255895658424
"800 Main St, Gardendale, Alabama 35071",33.647675735547,-86.811499980932
"45549 Al Highway 277, Stevenson, Alabama 35772",34.899474142538,-85.789676618664
"6100 Old Leeds Rd, Irondale, Alabama 35210",33.534800523216,-86.674587209197
"411 Graball Cutoff, Abbeville, Alabama 36310",31.582120001121,-85.278239960446
"1001 Haysland Road, Huntsville, Alabama 35802",34.64441441307,-86.577198857194
"60 Metcalf St, Pisgah, Alabama 35765",34.685547235885,-85.84476167195
"373 Malvern Road, Dothan, Alabama 36301",31.12313231199,-85.457149174144
"4800 Mcadory School Rd, Mccalla, Alabama 35111",33.331619702475,-87.00010794837
"1000 Bethel Road Ne, Hartselle, Alabama 35640",34.455292840739,-86.92352400786
"2304 Billie Watkins St Sw, Huntsville, Alabama 35801",34.716122739136,-86.582503778404
"1000 Eagle Drive, Center Point, Alabama 35215",33.658710026023,-86.698175094416
"1172 S State Highway 123, Newton, Alabama 36352",31.22779869297,-85.633363440626
"1901 S Lakeshore Dr, Homewood, Alabama 35209",33.459767191293,-86.790823804769
"663 Houston St, Cottonwood, Alabama 36320",31.056244975049,-85.302930842753
"29333 Al Highway 71, Higdon, Alabama 35979",34.846315959867,-85.625695422205
"5000 Pulaski Pike, Huntsville, Alabama 35810",34.787930139074,-86.6163656221
"1172 S State Highway 123, Newton, Alabama 36352",31.22779869297,-85.633363440626
"2500 Meridian Street, Huntsville, Alabama 35811",34.756130128648,-86.57894613907
"2285 Minor Pkwy, Adamsville, Alabama 35005",33.575403235297,-86.928406311852
"1920 Blue Devil Road, Kimberly, Alabama 35091",33.786479986173,-86.766679969973
"4301 Warrior Jasper Road, Dora, Alabama 35062",33.758100468023,-86.96418932
"6623 Roe Chandler Rd, Pinson, Alabama 35126",33.692803494644,-86.602441680552
"4881 15th Street Road, Hueytown, Alabama 35023",33.429261889346,-87.029941409116
"4228 Panther Parkway, Smiths Station, Alabama 36877",32.521509981026,-85.079539988693
"9494 Oak Grove Pkwy, Bessemer, Alabama 35023",33.469669988132,-87.159740015473
"6895 Highway 75, Pinson, Alabama 35126",33.700532208076,-86.675189608599
"2100 18th Street South, Birmingham, Alabama 35209",33.487528163394,-86.792820912371
"15641 E Limestone Rd, Athens, Alabama 35613",34.782954476153,-86.832624018245
"300 Rogers Ln, Florence, Alabama 35634",34.963898934395,-87.523570979145
"10945 School House Rd, Lester, Alabama 35647",34.938944044616,-87.123786881969
"8601 Old Highway 31, Morris, Alabama 35116",33.75494726655,-86.811293611132
"500 Elm St, Sulligent, Alabama 35586",33.89984663923,-88.131526494191
"100 Spartan Drive, Pleasant Grove, Alabama 35127",33.497270002727,-86.997309963683
"300 Sls Road, Millport, Alabama 35576",33.562819586863,-88.037137104216
"1301 S 8th Ave, Lanett, Alabama 36363",32.858274786658,-85.198696628807
"7601 Highway 17, Florence, Alabama 35634",34.928804737989,-87.669401161277
"6909 Al Highway 101, Town Creek, Alabama 35672",34.562023847263,-87.414954918869
"4300 Highway 72, Killen, Alabama 35645",34.857991600809,-87.493639917808
"55 County Road 370, Trinity, Alabama 35673",34.566715716919,-87.172287889342
"3000 County Road 200, Florence, Alabama 35633",34.897205625035,-87.795725956963
"102 College St, Moulton, Alabama 35650",34.476275236304,-87.299056639959
"201 Cedar Street, Rogersville, Alabama 35652",34.828581514223,-87.290456046951
"1500 Greenwave Drive, Leeds, Alabama 35094",33.547313107898,-86.573432510054
"685 Lee Road 61, Loachapoka, Alabama 36865",32.590040002293,-85.578960015242
"7343 Al Highway 51, Opelika, Alabama 36804",32.549689981411,-85.372760000347
"8990 Highway 18, Vernon, Alabama 35592",33.75119043957,-88.123363431861
"21465 Al Hwy 99, Athens, Alabama 35614",34.855524010645,-87.044927206731
"55 County Road 370, Trinity, Alabama 35673",34.566715716919,-87.172287889342
"311 Schoolhouse Ln, Waterloo, Alabama 35677",34.918043295521,-88.063054244351
"7730 Highway 72 W, Athens, Alabama 35611",34.802726362516,-87.183097760497
"4848 Lee Road 270, Valley, Alabama 36854",32.710770001966,-85.188189989509
"145 Main St, Hayneville, Alabama 36040",32.154555496266,-86.678840101185
"8213 County Road 33, Letohatchee, Alabama 36047",32.05785771462,-86.550905809994
"12060 Sommers Rd, Tanner, Alabama 35671",34.732683112255,-86.97446760115
"25630 Evans Ave, Elkmont, Alabama 35620",34.931266095956,-86.970309224918
"321 N Main Street, Linden, Alabama 36748",32.308541768444,-87.797936326597
"30285 Ardmore Ave, Ardmore, Alabama 35739",34.988717416464,-86.846639636068
"101 School St, Lexington, Alabama 35648",34.968012000885,-87.37396218226
"14380 Highway 231431 N, Hazel Green, Alabama 35750",34.940123155012,-86.572830682894
"3803 M L K Highway, Tuskegee, Alabama 36083",32.401930314552,-85.734601098352
"75 Bagby Dr, Birmingham, Alabama 35209",33.470086708819,-86.830661689511
"11306 County Line Road, Madison, Alabama 35756",34.705205141569,-86.786602755595
"8000 Park Crossing, Montgomery, Alabama 36117",32.313726792258,-86.173359745263
"440 Main Street, Sweet Water, Alabama 36782",32.097458050095,-87.867525886422
"212 Panther Drive, Dixons Mills, Alabama 36736",32.052312123996,-87.800891948597
"2001 W Fairview Ave, Montgomery, Alabama 36108",32.351434436158,-86.32344918163
"6077 Main St, Grant, Alabama 35747",34.534431918429,-86.252209039342
"142 School Avenue, Bear Creek, Alabama 35543",34.279369637663,-87.69782109456
"3420 Carter Hill Rd, Montgomery, Alabama 36111",32.343652093637,-86.260956742406
"8115 Us Highway 43, Guin, Alabama 35563",33.972884062335,-87.915368622156
"2616 Jeff Rd, Harvest, Alabama 35749",34.835105392772,-86.714935595922
"4405 Brewbaker Dr, Montgomery, Alabama 36116",32.320545776629,-86.217930146187
"211 Aggie Ave, Hamilton, Alabama 35570",34.139538614144,-87.990445628758
"1990 Asbury Rd, Albertville, Alabama 35951",34.362993477651,-86.142279202388
"994 Scant City Road, Guntersville, Alabama 35976",34.376682497573,-86.42327731898
"10180 State Highway 129, Brilliant, Alabama 35548",34.027151499888,-87.762668667251
"3440 Mcgehee Rd, Montgomery, Alabama 36111",32.333694920376,-86.247893637715
"Coates St, Thomaston, Alabama 36783",32.280670175751,-87.633985601358
"5216 Main Dr, New Hope, Alabama 35760",34.540988981232,-86.404903917093
"185 School St, Hackleburg, Alabama 35564",34.280169682708,-87.833504298624
"500 E Main St, Notasulga, Alabama 36866",32.560559572375,-85.661720512414
"3725 Airport Blvd, Mobile, Alabama 36608",30.675987068817,-88.134603271625
"174 Brock Rd, Gurley, Alabama 35748",34.738296155579,-86.430343264037
"225 Eagle Drive, Douglas, Alabama 35964",34.177203073249,-86.320393665843
"650 Hughes Rd, Madison, Alabama 35758",34.720030154539,-86.741731193331
"310 N Madison Terrace, Montgomery, Alabama 36107",32.384023029529,-86.283282400804
"1275 Jordan Rd Building A, Huntsville, Alabama 35811",34.78493372706,-86.523052126103
"1600 High School Rd, Midfield, Alabama 35228",33.450770011847,-86.915899974721
"4400 Bell Road, Montgomery, Alabama 36116",32.321784770036,-86.198247598434
"1200 Hugh Street, Montgomery, Alabama 36108",32.361307037595,-86.331688164995
"1756 S Court St, Montgomery, Alabama 36104",32.356094792871,-86.308564646827
"225 Ann St, Montgomery, Alabama 36107",32.37882227082,-86.272629726937
"4123 Winchester Rd, New Market, Alabama 35761",34.870179311353,-86.454264137695
"913 N Wilson Ave, Prichard, Alabama 36610",30.742809019071,-88.079749192472
"2500 Panther Cir, Pelham, Alabama 35124",33.312664669873,-86.821823130926
"27605 State Hwy 75, Oneonta, Alabama 35121",33.932392437252,-86.496604029516
"101 Hubbard Drive, Marion, Alabama 36756",32.630976399746,-87.334182538904
"1900 E Avalon Ave, Muscle Shoals, Alabama 35661",34.744379761086,-87.645684902271
"9235 Danville Rd, Danville, Alabama 35619",34.415409762606,-87.095728845846
"1567 E Dublin St, Mobile, Alabama 36605",30.670226504179,-88.07410578653
"3900 Pleasant Valley Rd, Mobile, Alabama 36609",30.661557663804,-88.147393492388
"6201 Swedetown Rd, Theodore, Alabama 36582",30.54575218423,-88.183004663581
"141 Eagle Way, Ozark, Alabama 36360",31.459508054638,-85.625940833998
"502 N Maloy St, Opp, Alabama 36467",31.28846689653,-86.239488938004
"261 S Greenway Dr, Trinity, Alabama 35673",34.589551808703,-87.080532845353
"2051 Military Road, Mobile, Alabama 36605",30.62893258323,-88.0832654283
"6301 Biloxi Ave, Mobile, Alabama 36608",30.70537272162,-88.202006473941
"3010 Hwy 136 W, Excel, Alabama 36439",31.430213103182,-87.341054791649
"2650 N Bethel Rd, Decatur, Alabama 35603",34.549696391661,-86.89424091006
"14001 Hurricane Blvd, Irvington, Alabama 36544",30.443319392701,-88.277979125817
"43 Clark Dr, Falkville, Alabama 35622",34.367150177741,-86.914045661054
"8200 Lebaron Ave, Citronelle, Alabama 36522",31.094537635608,-88.238177825563
"470 West Avenue, Uniontown, Alabama 36786",32.446313909195,-87.516001100996
"700 Donald St, Mobile, Alabama 36617",30.713648549207,-88.087556015459
"212 Tiger Dr, Monroeville, Alabama 36460",31.483917623518,-87.333809932384
"100 S Carlen St, Mobile, Alabama 36606",30.681767154458,-88.08480086591
"17688 Highway 21 N, Beatrice, Alabama 36425",31.733314614619,-87.197082819043
"3125 Dauphin Island Pkwy, Mobile, Alabama 36605",30.607308074098,-88.07509063962
"1870 Pleasant Ave, Mobile, Alabama 36617",30.702284741606,-88.080380628811
"4275 Snow Rd, Semmes, Alabama 36575",30.781598889145,-88.276570533844
"15933 Hwy 21 S, Uriah, Alabama 36480",31.295291397254,-87.504460966365
"59 Eva Rd, Somerville, Alabama 35670",34.41000917751,-86.703016488705
"3650 Bethune Dr, Mountain Brook, Alabama 35223",33.491168887633,-86.71521120023
"5450 Lott Road, Eight Mile, Alabama 36613",30.804363306501,-88.249714038853
"1300 Cogswell Ave, Pell City, Alabama 35125",33.586123888621,-86.294744522057
"1700 Bulldog Pkwy, Opelika, Alabama 36801",32.653114,-85.390224
"1 Yellow Jacket Drive, Oxford, Alabama 36203",33.611159992223,-85.831421430144
"8901 Airport Blvd, Mobile, Alabama 36608",30.673292182787,-88.251620932459
"750 Tom Bible Mem Hwy, Piedmont, Alabama 36272",33.928971879151,-85.622776749368
"465 Woodland Ave, Wedowee, Alabama 36278",33.310996695352,-85.488310004429
"1865 Waterloo Rd, Russellville, Alabama 35653",34.525099999516,-87.739260023338
"696 Georgia Washington Rd, Pike Road, Alabama 36064",32.354444792011,-86.101375703762
"16700 Us Highway 411, Odenville, Alabama 35120",33.701648378606,-86.370754403235
"2180 Broad St, Selma, Alabama 36701",32.429440893535,-87.024295605483
"2400 Dobbs Dr, Phenix City, Alabama 36870",32.483362544435,-85.044308866964
"105 Bailey St, Wadley, Alabama 36276",33.123590007016,-85.576130033273
"33215 Us Highway 231, Ashville, Alabama 35953",33.822668074455,-86.263741305231
"24574 Highway 48, Woodland, Alabama 36280",33.37371999555,-85.39313003672
"57 Warrior Way, Seale, Alabama 36875",32.309634423905,-85.165976000018
"417 3rd St Se, Aliceville, Alabama 35442",33.122516315796,-88.148837557343
"1115 Industrial Parkway, Saraland, Alabama 36571",30.802026519951,-88.099536802449
"2194 Broad Street, Selma, Alabama 36701",32.429440893535,-87.024295605483
"1310 Hillsboro Parkway, Helena, Alabama 35080",33.277172851222,-86.87096315206
"100 Tiger Circle, Roanoke, Alabama 36274",33.149105987115,-85.372712139679
"8295 U S Hwy 11, Springville, Alabama 35146",33.782105785635,-86.433754259854
"714 High School Dr, Moody, Alabama 35004",33.608365717162,-86.46373049657
"630 4th St Nw, Gordo, Alabama 35466",33.323950236126,-87.908977258798
"1177 Mcmillan Street East, Talladega, Alabama 35160",33.422966400824,-86.077515783756
"286 Eagle Circle, Goshen, Alabama 36035",31.722586569815,-86.123212278753
"205 4th Ave Se, Reform, Alabama 35481",33.381340551198,-88.014183632043
"101 Washington St, Columbiana, Alabama 35051",33.1793093372,-86.600696408237
"701 N Broadway, Sylacauga, Alabama 35150",33.150212017683,-86.253703524627
"552 S Main Street, Brundidge, Alabama 36010",31.710022003601,-85.818441874496
"25053 John T Reid Pkwy, Scottsboro, Alabama 35768",34.672428041078,-86.002927490511
"13878 U S Highway 11, York, Alabama 36925",32.549064638008,-88.231974742007
"410 Roy Drive, Ashville, Alabama 36265",33.820138440384,-86.26890505956
"42505 Highway 25, Vincent, Alabama 35178",33.382303113611,-86.414177121883
"1060 Main St, Ragland, Alabama 35131",33.742709773467,-86.150722065589
"10510 Highway 11, Chelsea, Alabama 35043",33.334820073122,-86.683782225998
"300 Cedars Road, Munford, Alabama 36268",33.52750508063,-85.948299952044
"5476 Caldwell Mill Rd, Birmingham, Alabama 35242",33.365864140644,-86.732802867269
"2800 19th Ave, Sheffield, Alabama 35660",34.76916348847,-87.692062163308
"170 W W Averitte Dr, Sylacauga, Alabama 35151",33.145825885371,-86.410780295859
"100 Calera Eagle Drive, Calera, Alabama 35040",33.092084794616,-86.7683327632
"78989 Al Hwy 77, Lincoln, Alabama 35096",33.635863181568,-86.099972998206
"2280 Highwy 35, Pelham, Alabama 35124",33.307579029809,-86.783355303714
"980 Oak St, Montevallo, Alabama 35115",33.103919266669,-86.861257580714
"1 Gator Circle, Satsuma, Alabama 36572",30.847040000766,-88.056900039342
"19230 Northside Parkway, Northport, Alabama 35475",33.469143043965,-87.632579042998
"801 Seminole Ave, Sylacauga, Alabama 35150",33.179002349814,-86.257884868541
"200 N Commons East, Tuscumbia, Alabama 35674",34.733192067818,-87.688355217727
"5104 Howell Cove Rd, Talladega, Alabama 35160",33.486061578534,-86.162284071576
"227 Weldon St, Dadeville, Alabama 36853",32.829035882604,-85.755860156007
"1325 Fay S Perry Dr, Childersburg, Alabama 35044",33.274439076555,-86.34152771269
"22435 Al Highway 21, Alpine, Alabama 35014",33.318026154272,-86.196355215614
"155 Yellow Jacket Dr, Jasper, Alabama 35503",33.957986800912,-87.215702881671
"502 Barnett Blvd, Tallassee, Alabama 36078",32.534515849609,-85.889893124695
"300 Patriot Pkwy, Tuscaloosa, Alabama 35405",33.12949103449,-87.537475008302
"91 Black Creek Road, Tarrant, Alabama 35217",33.609144931258,-86.77247219176
"2300 26th Avenue, Northport, Alabama 35476",33.232107992858,-87.581541020228
"Highway 56, Chatom, Alabama 36518",31.453145715497,-88.214365534311
"1 Wildcat Drive, Millry, Alabama 36558",31.640139995907,-88.315019993258
"4090 Al Highway 120, Notasulga, Alabama 36866",32.603573316466,-85.804953722984
"330 Glenn C Gant Cir, Dora, Alabama 35062",33.750209982391,-87.061839973117
"134 University Drive, Livingston, Alabama 35470",32.595997268663,-88.189376065191
"2901 Northridge Rd, Tuscaloosa, Alabama 35406",33.243833699682,-87.529211491695
"6315 Mary Harmon Bryant Drive, Cottondale, Alabama 35453",33.158911907894,-87.453899872797
"151 School Drive, Addison, Alabama 35540",34.204930242541,-87.181374727625
"777 Gates Dr, Thomasville, Alabama 36784",31.888029064355,-87.737486897228
"905 15th Street, Tuscaloosa, Alabama 35401",33.199015351272,-87.549212002033
"7010 Highway 43, Mcintosh, Alabama 36553",31.254130011077,-88.024959959101
"301 44th Ct Ne, Tuscaloosa, Alabama 35404",33.218686870309,-87.477874135463
"15815 Romulus Rd, Buhl, Alabama 35446",33.193449199766,-87.728572931126
"150 George Wallace Dr, Troy, Alabama 36081",31.808979018502,-85.948725997446
"232 Pirate Cove, Winfield, Alabama 35594",33.941523653428,-87.820884756661
"12250 George Richmond Parkway, Brookwood, Alabama 35444",33.257148970504,-87.311426646687
"531 E Main St, Lynn, Alabama 35575",34.040067818111,-87.541098707242
"1310 T L Threadgill Rd, Camden, Alabama 36726",32.005894989409,-87.328153555718
"10684 Highway 22 E, New Site, Alabama 36256",33.014610010672,-85.804000033906
"12500 Wildcat Dr, Northport, Alabama 35475",33.306938667003,-87.60632045547
"217 Bulldog Boulevard, Carbon Hill, Alabama 35549",33.904150130183,-87.505507183962
"183 School Road, Cordova, Alabama 35550",33.7598945081,-87.185901710642
"2235 Lime Rock Rd, Vestavia Hills, Alabama 35216",33.420951992495,-86.780298829912
"13077 County Rd 1, Fruitdale, Alabama 36539",31.344209989227,-88.405740013535
"10699 Main St, Oakman, Alabama 35579",33.719740465153,-87.385554857266
"26301 Highway 43, Leroy, Alabama 36548",31.50075181235,-87.971616579533
"6450 Husky Parkway, Trussville, Alabama 35173",33.665724170239,-86.590567886173
"1222 Co Rd 24, Double Springs, Alabama 35553",34.164769986721,-87.397239984664
"6615 Co Rd 41, Arley, Alabama 35541",34.078254454806,-87.212983289367
"202 Volcano Dr, Akutan, Alaska 99553",54.135050011862,-165.772199978015
"100 Slocum Dr, King Cove, Alaska 99612",55.047785104556,-162.297618742178
"123 Red Cove Rd, Sand Point, Alaska 99661",55.355525681322,-160.472884918932
"500 Big Dog Salmon Way, Angoon, Alaska 99820",57.498432489846,-134.582048528927
"300 Valley Rd, False Pass, Alaska 99583",54.849128868408,-163.425966533161
"249 Jon Summar Way, Tok, Alaska 99780",63.327410008445,-142.979299976946
"12 Gustavus Rd, Gustavus, Alaska 99826",58.414585340966,-135.716631772549
"Mp 1361 Ak Hwy, Dot Lake, Alaska 99737",63.6609,-144.065
"89 8th Ave, Metlakatla, Alaska 99926",55.12583394235,-131.575239182474
"249 Jon Summar Way, Tok, Alaska 99780",63.327410008445,-142.979299976946
"168 3rd Avenue, Eagle, Alaska 99738",64.787339980149,-141.200200040452
"6 Mile Main Village Rd, Mentasta Lake, Alaska 99780",64.781340996873,-141.118825039582
"Mile 7 Village Rd, Northway, Alaska 99764",62.9667186,-141.855701
"100 Main St, Tetlin, Alaska 99779",63.137122,-142.524235
"#2 School Rd North, Naknek, Alaska 99633",58.734484297563,-157.006506861256
"Portage St, Whittier, Alaska 99693",60.771848356123,-148.686298115017
"9312 Vanguard Dr, Anchorage, Alaska 99507",61.136930920185,-149.847709423635
"Main St, Chenega Bay, Alaska 99574",60.5416813,-145.7586732
"29 Main St, Elim, Alaska 99739",64.616710359369,-162.261268448613
"#2 School Rd North, Naknek, Alaska 99633",58.734484297563,-157.006506861256
"100 Baker St, St. Michael, Alaska 99659",63.478752019861,-162.033518117679
"200 Main St, Savoonga, Alaska 99769",63.6949757,-170.4710164
"169 Main St, Gambell, Alaska 99742",63.743945,-171.693235
"Main St, Diomede, Alaska 99762",64.5008689,-165.4058821
"Main Street, Brevig Mission, Alaska 99785",65.378672,-166.851965
"Main St, Teller, Alaska 99778",65.180132,-166.303151
"40 Main St, Golovin, Alaska 99762",64.5008689,-165.4058821
"40 Main St, Shaktoolik, Alaska 99771",64.551638,-160.768162
"09 Main St, Koyuk, Alaska 99753",64.932089999752,-161.157400021868
"Seaview Ln, Shishmaref, Alaska 99772",66.055753,-165.500816
"6200 Ashwood St, Anchorage, Alaska 99507",61.16443235947,-149.853811659782
"490 Main St, Wales, Alaska 99783",65.605060013759,-168.085999958257
"Main St, Unalakleet, Alaska 99684",63.873529679047,-160.789110245706
"Main St, Stebbins, Alaska 99671",63.417752,-162.233653
"55 Main St, White Mountain, Alaska 99784",64.680644509456,-163.406376850436
"4400 Business Park Blvd # B22, Anchorage, Alaska 99503",61.180752416506,-149.889352484121
"2508 Blueberry Ln, Anchorage, Alaska 99503",61.197888620987,-149.892752280333
"13400 Elmore Rd, Anchorage, Alaska 99516",61.09959279321,-149.804277615581
"8701 Yosemite Dr, Eagle River, Alaska 99577",61.293917887004,-149.581498082899
"16525 S Birchwood Loop Rd, Chugiak, Alaska 99567",61.371184135695,-149.538922644443
"2909 W 88th Ave, Anchorage, Alaska 99502",61.14115065884,-149.934530398543
"400 W Northern Lights Blvd #9, Anchorage, Alaska 99503",61.195234063809,-149.89075338432
"5577 Abbott Rd, Anchorage, Alaska 99507",61.137568633024,-149.777561614993
"4025 E Northern Lights Blvd, Anchorage, Alaska 99508",61.198930641524,-149.805431574883
"1700 Hillcrest Dr, Anchorage, Alaska 99517",61.200594990082,-149.91390873592
"2650 E Northern Lights Blvd, Eagle River, Alaska 99508",61.195196151285,-149.831249872475
"5530 E Northern Lights Blvd, Anchorage, Alaska 99504",61.195198045349,-149.777625988442
"616 W 10th Ave, Anchorage, Alaska 99501",61.212667065438,-149.893815209361
"1101 Golden Bear Dr, Anchorage, Alaska 99504",61.232619979993,-149.733200012582
"5530 E Northern Lights Ste 1, Anchorage, Alaska 99504",61.195198045349,-149.777625988442
"410 East 56th, Anchorage, Alaska 99518",61.169961830066,-149.875134790666
"2650 E Northern Lights Blvd, Anchorage, Alaska 99508",61.195196151285,-149.831249872475
"4515 Campbell Airstrip Rd, Anchorage, Alaska 99507",61.180343351433,-149.763290423109
"2220 Nichols St, Anchorage, Alaska 99508",61.201085823353,-149.813146401536
"2600 Providence Dr, Anchorage, Alaska 99508",61.187993471851,-149.831858244408
"Mile 4 Nabesna Rd, Slana, Alaska 99586",62.586867709257,-143.603786970322
"100 Fisherman Ave, Cordova, Alaska 99574",60.540549997492,-145.759199990779
"1976 Aurora Dr, Glennallen, Alaska 99588",62.112949980475,-145.52669999447
"1976 Aurora Dr, Glennallen, Alaska 99588",62.112949980475,-145.52669999447
"Mile 5 Edgerton Hwy, Copper Center, Alaska 99573",61.550271444995,-144.447498771714
"100 Fisherman Ave, Cordova, Alaska 99574",60.540549997492,-145.759199990779
"Milepost 1392 Alaska Hwy, Delta Junction, Alaska 99737",64.036685888646,-145.7289888543
"1655 N Clearwater Ave, Delta Junction, Alaska 99737",64.040489181891,-145.519175558535
"1 Suntrana St, Healy, Alaska 99743",63.873420005605,-149.013800038497
"1680 N Clearwater Ave, Delta Junction, Alaska 99737",64.041550003012,-145.726699999406
"565 Seward St, Dillingham, Alaska 99576",59.042399846503,-158.464414392814
"400 Suntrana St, Healy, Alaska 99743",63.872999988437,-149.014000030707
"100 Panther Way, Craig, Alaska 99921",55.4752700196,-133.1351000318
"100 School Road Upper, Craig, Alaska 99921",55.475479986274,-133.137200033822
"3120 First St, Anderson, Alaska 99744",64.343090017486,-149.188400026964
"601 Nphs Blvd, North Pole, Alaska 99705",64.746799187151,-147.368423727978
"601 Loftus Rd, Fairbanks, Alaska 99709",64.845649612442,-147.843950879606
"3800 Geist Rd, Fairbanks, Alaska 99709",64.849222541124,-147.82970777746
"675 Raven's Way, Eielson Afb, Alaska 99702",64.676932170069,-147.066508127819
"901 Airport Way, Fairbanks, Alaska 99701",64.836460489238,-147.733472458894
"3750 Geist Rd, Fairbanks, Alaska 99709",64.849222538582,-147.815019417747
"397 Hamilton Avenue, Fairbanks, Alaska 99701",64.84668638145,-147.693676924854
"2157 Van Horn Rd, Fairbanks, Alaska 99701",64.812900936743,-147.767819552403
"397 Hamilton Avenue, Fairbanks, Alaska 99701",64.84668638145,-147.693676924854
"1502 Wilbur St, Fairbanks, Alaska 99701",64.834176986332,-147.761916722127
"604 Haines Hwy, Haines, Alaska 99827",59.234528070891,-135.454042896374
"604 Haines Hwy, Haines, Alaska 99827",59.234528070891,-135.454042896374
"359 Challenger, Galena, Alaska 99741",66.124965,-154.60572
"175 Library Place, Kake, Alaska 99830",56.9747591,-133.941086
"299 Antoski Ave, Galena, Alaska 99741",64.747975253356,-156.872445962874
"1639 Glacier Ave, Juneau, Alaska 99801",58.305100470624,-134.427976399488
"1415 Glacier Ave - Marie Drake, Juneau, Alaska 99801",58.310927641948,-134.441109037757
"1415 Glacier Ave - Marie Drake, Juneau, Alaska 99801",58.310927641948,-134.441109037757
"3101 Dimond Park Loop, Juneau, Alaska 99801",58.379356185151,-134.591939344346
"3252 Hospital Dr, Juneau, Alaska 99801",58.329492326979,-134.467819451572
"101 Pine St, Shageluk, Alaska 99665",62.655159,-159.529878
"985 Ksd Way, Chevak, Alaska 99563",61.332509,-164.607872
"366 Garteeni Hwy, Hoonah, Alaska 99829",58.108149785623,-135.441104813656
"12812 Old Glen Hwy, Eagle River, Alaska 99577",61.335841444606,-149.563595901063
"90 School St, Grayling, Alaska 99590",62.905377523695,-160.065203267473
"9190 Main St, Nikolai, Alaska 99691",63.0207716,-154.376871
"102 Main St, Holy Cross, Alaska 99602",42.595395048074,-90.995835380144
"1 River Rd, Takotna, Alaska 99675",62.987779985642,-156.062899975135
"100 Totem Pole Ln, Hydaburg, Alaska 99922",55.207579985823,-132.826000001666
"90 Takotna Ave, Mcgrath, Alaska 99627",62.953209999461,-155.595899976602
"100 Totem Pole Ln, Hydaburg, Alaska 99922",55.207579985823,-132.826000001666
"600 E Fairview Ave, Homer, Alaska 99603",59.651910010563,-151.5281000042
"52275 Education Dr, Nikiski, Alaska 99635",60.734299994416,-151.296199984521
"143 E. Park Avenue, Soldotna, Alaska 99669",60.490428358084,-151.069881252194
"9583 Kenai Spur Hwy, Kenai, Alaska 99611",60.561743430124,-151.212241310259
"46188 Sterling Hwy, Soldotna, Alaska 99669",60.457799951759,-151.101156701847
"2100 Swetmann, Seward, Alaska 99664",60.130016072714,-149.443259420545
"425 W Marydale Ave, Soldotna, Alaska 99669",60.494942206393,-151.095678621123
"19030 Bean Creek Rd, Cooper Landing, Alaska 99572",60.494461308996,-149.808262377232
"4122 Ben Walters Ln, Homer, Alaska 99603",59.649514466266,-151.519569195728
"63550 Alexandrovsky St, Nanwalek, Alaska 99603",59.353683090633,-151.920244354098
"64782 Nearhouse Ln, Hope, Alaska 99605",60.917609408925,-149.622307349752
"405 Marathon Rd, Kenai, Alaska 99611",60.565368637776,-151.231440403164
"44032 Milton Rd #b11, Kachemak, Alaska 99603",59.792653585222,-151.075333399268
"705 Frontage Road Ste C, Kenai, Alaska 99611",60.55437193935,-151.253509110186
"15735 Sterling Hwy, Ninilchik, Alaska 99639",60.038434580444,-151.676894147249
"63693 Graham Rd, Port Graham, Alaska 99603",59.350910912245,-151.831769731633
"46400 D St, Tyonek, Alaska 99682",61.068240004158,-151.143499981213
"31746 Basargin Rd, Homer, Alaska 99603",59.823120001982,-151.115030074171
"365 Winifred Ave, Seldovia, Alaska 99663",59.441872928032,-151.713588084892
"School Rd, Chignik Lagoon, Alaska 99565",56.317177,-158.49773
"33002 Voznesenka Loop, Voznesenka, Alaska 99603",59.794166311506,-151.097196400822
"School Rd, Igiugig, Alaska 99613",58.7033477,-156.6943472
"School Rd, Chignik Lake, Alaska 99548",56.254784203358,-158.768795885228
"School Rd, Kokhanok, Alaska 99606",59.74431,-154.943493
"School Rd, Iliamna, Alaska 99606",59.780923882689,-154.088790436328
"100 School Rd, Nondalton, Alaska 99640",59.966900004059,-154.857000007693
"School Rd, Port Heiden, Alaska 99549",56.940366,-158.584904
"Jensen Dr, King Salmon, Alaska 99613",58.694693640784,-156.667985632235
"School Rd, Levelock, Alaska 99625",59.113760689466,-156.854475049345
"Main St, Akhiok, Alaska 99615",57.866444804018,-152.880791743119
"School Road, Perryville, Alaska 99648",55.9142723,-159.1577424
"917 Rezanof East, Kodiak, Alaska 99615",57.792662528458,-152.392959065843
"722 Mill Bay Rd, Kodiak, Alaska 99615",57.793233832587,-152.398148162161
"School Rd, Port Alsworth, Alaska 99653",60.38225,-154.715583
"Main St, Ouzinkie, Alaska 99644",57.92118,-152.508211
"Main St, Old Harbor, Alaska 99643",57.2136731,-153.2882748
"715 Bayview Blvd, Klawock, Alaska 99925",55.553859797333,-133.099802422963
"36158 Chiniak Hwy, Chiniak, Alaska 99615",57.612965498771,-152.382240254648
"Main St, Port Lions, Alaska 99550",57.866612596106,-152.880622327571
"267 School Road, Emmonak, Alaska 99581",62.778829994043,-164.529200030737
"General Delivery, Hooper Bay, Alaska 99604",61.527958,-165.572855
"100 High School Rd, Mountain Village, Alaska 99632",62.169509,-163.871442
"20129 School Rd, Kotlik, Alaska 99620",63.031749982867,-163.554800014736
"9 School Rd, Alakanuk, Alaska 99554",62.779625276506,-164.526647329078
"89 School Rd, Marshall, Alaska 99585",61.78664832463,-161.323805074256
"90 School Rd, Russian Mission, Alaska 99657",61.78664832463,-161.323805074256
"5090 School Rd, Pilot Station, Alaska 99650",61.936643836032,-162.895180667672
"32 School Rd, Nunam Iqua, Alaska 99666",62.526120013802,-164.851599961916
"103 Askinuk Road, Scammon Bay, Alaska 99662",61.841929984205,-165.578399983038
"42728 S Parks Hwy, Talkeetna, Alaska 99676",62.1311600004,-150.043899980394
"2472 N Seward Meridian Pkwy, Wasilla, Alaska 99654",61.608758490491,-149.360015128019
"9550 E Bogard Rd, Palmer, Alaska 99645",61.60856577177,-149.212504871754
"701 E Bogard Rd, Wasilla, Alaska 99654",61.586981578634,-149.429613480475
"8295 East College Drive, Palmer, Alaska 99645",61.579665048299,-149.243311331026
"1170 W Bogard Rd, Palmer, Alaska 99645",61.606508512908,-149.138908081535
"7362 W Parks Hwy #725, Wasilla, Alaska 99654",61.581629603906,-149.635080867277
"12501 W Hawk Lane, Big Lake, Alaska 99652",61.585090504223,-149.767668161651
"1775 W Parks Hwy, Wasilla, Alaska 99654",61.579477419392,-149.495485588498
"10015 W Redington School Rd, Wasilla, Alaska 99623",61.500929226866,-149.702912005458
"65975 S Wolverine Cir, Sutton, Alaska 99674",61.794811108666,-147.726419720263
"2360 N Tait Dr, Wasilla, Alaska 99654",61.605902338217,-149.351195529732
"27297 W Beryozova Dr, Palmer, Alaska 99652",61.5534905,-149.8162146
"600 E Railroad Ave #6, Wasilla, Alaska 99654",61.579749035873,-149.435392731286
"758 N Shoreline Dr., Wasilla, Alaska 99687",61.585776472063,-149.337415209027
"141 E Seldon Rd Ste C, Wasilla, Alaska 99654",61.613939582649,-149.449634798689
"202 Blueberry Hill, Chuathbaluk, Alaska 99557",61.573360018233,-159.249399993219
"201 High School Rd, Aniak, Alaska 99557",61.578310307385,-159.552819984757
"581 S Outer Springer Lp, Palmer, Alaska 99645",61.586023104184,-149.104256699376
"1150 North France Rd, Palmer, Alaska 99645",61.592776122314,-149.163666435226
"209 Airport Rd, Kalskag, Alaska 99607",61.53256001488,-160.347099984226
"203 Mountville Dr, Crooked Creek, Alaska 99575",61.790731,-157.954839
"206 River Bend Rd, Sleetmute, Alaska 99668",61.598869,-157.181921
"1006 Ron Edwards Memorial Dr, Bethel, Alaska 99559",60.802919598291,-161.771463542562
"104 Village Rd, Kasigluk, Alaska 99609",60.861883,-162.273556
"100 Akula Heights, Kasigluk, Alaska 99609",60.872850004059,-162.516199984828
"Lower Kuskokwim School Dist, Bethel, Alaska 99559",60.7975037,-161.7759302
"106 Village Rd, Kongiganak, Alaska 99559",59.938872471281,-164.037253605991
"112 Village Rd, Newtok, Alaska 99559",59.938872471281,-164.037253605991
"114 Village Rd, Nunapitchuk, Alaska 99641",60.861893,-162.273568
"102 Village Rd, Chefornak, Alaska 99561",60.159498,-164.233588
"103 Village Rd, Eek, Alaska 99578",60.215810006585,-162.025699979638
"105 Village Rd, Kipnuk, Alaska 99614",59.936429983907,-164.037899972889
"101 Village Rd, Atmautluak, Alaska 99559",60.857309997481,-162.276400021406
"107 Village Rd, Kwethluk, Alaska 99621",60.796643,-161.427333
"112 Village Rd, Mertarvik, Alaska 99559",59.938872471281,-164.037253605991
"108 Village Rd, Kwigillingok, Alaska 99622",59.883006,-162.995297
"1010 4th Ave, Bethel, Alaska 99559",60.802229997144,-161.770300037121
"117 Village Rd, Quinhagak, Alaska 99655",59.541315,-161.339844
"119 Village Rd, Tuntutuliak, Alaska 99680",60.791526,-161.754214
"115 Village Rd, Oscarville, Alaska 99559",59.936501175083,-164.038672765257
"120 Village Rd, Tununak, Alaska 99681",60.480848,-164.733884
"109 Village Rd, Mekoryuk, Alaska 99630",60.386459981271,-166.189199996269
"101 Sunny Side Rd, Toksook Bay, Alaska 99637",60.5346467,-165.106662
"113 Village Rd, Nightmute, Alaska 99690",60.8716362,-162.5158759
"110 Village Rd, Napakiak, Alaska 99634",60.67922,-161.766228
"111 Village Rd, Napaskiak, Alaska 99634",60.707850018846,-161.760499999747
"2610 4th Avenue, Ketchikan, Alaska 99901",55.352599658655,-131.677391249555
"121 Village Rd, Goodnews Bay, Alaska 99589",59.174639,-161.526867
"2610 4th Ave, Ketchikan, Alaska 99901",55.352599658655,-131.677391249555
"2001 Barter Ave, Kaktovik, Alaska 99747",70.129363372764,-143.617349630744
"1029 Qasigialik St, Point Lay, Alaska 99759",69.744234139642,-163.011036180886
"1684 Okpik St, Utqiagvik, Alaska 99723",71.28876984898,-156.772361186124
"3131 Baranof Ave, Ketchikan, Alaska 99901",55.355150735233,-131.683654612939
"567 Main St, Wainwright, Alaska 99782",70.638027692112,-160.030084714097
"5246 Karluk St, Utqiagvik, Alaska 99723",71.300556503404,-156.75533230425
"1837 Tikigaq Ave, Point Hope, Alaska 99766",68.349408943644,-166.732831981269
"114 Illinois St, Anaktuvuk Pass, Alaska 99721",68.140006789029,-151.736907760981
"4001 Kippi St, Atqasuk, Alaska 99791",70.480650677611,-157.419380878127
"3310 3rd Ave, Nuiqsut, Alaska 99789",70.218532764855,-150.999536934002
"Mile 3.5 Nome-teller Hwy, Nome, Alaska 99762",64.567035699495,-165.598103127614
"406 E 2nd St, Nenana, Alaska 99760",64.561109982692,-149.086299980565
"Mile 3.5 Nome-teller Hwy, Nome, Alaska 99762",64.567035699495,-165.598103127614
"406 E 2nd St, Nenana, Alaska 99760",64.561109982692,-149.086299980565
"14 Chum Way, Pelican, Alaska 99832",57.957349093893,-136.22251740321
"109 Charles W St, Petersburg, Alaska 99833",56.81517998074,-132.955599982736
"#1 Elementary, St George, Alaska 99591",56.581679,-169.616909
"1330 Seward Ave, Sitka, Alaska 99835",57.055263321227,-135.36825497756
"930 Tolstoi, St. Paul, Alaska 99660",57.120769683948,-170.279955628575
"744 Third Ave, Kotzebue, Alaska 99752",66.899944424048,-162.586036901975
"2600 Musk Ox Pkwy, Selawik, Alaska 99770",66.604500001578,-160.010999999946
"109 Ambler Dr, Ambler, Alaska 99786",67.085519990458,-157.858800011621
"#2 Airport Rd, Noatak, Alaska 99761",67.566513305358,-162.971069136066
"165 Fireweed Dr, Noorvik, Alaska 99763",66.832126307262,-161.048081905877
"9900 University Dr, Buckland, Alaska 99727",65.977870009829,-161.123300008999
"101 Mushers Way, Kobuk, Alaska 99751",66.90801998922,-156.881900009179
"744 Third Ave, Kotzebue, Alaska 99752",66.899944424048,-162.586036901975
"36 Main St, Deering, Alaska 99736",66.074617706616,-162.717735587123
"190 Casanoff St, Kiana, Alaska 99749",66.971619984587,-160.43729999123
"#6 Oceanside Expressway, Kivalina, Alaska 99750",67.725880000613,-164.535299960773
"#6 West River Rd, Shungnak, Alaska 99773",66.8872979,-157.1453216
"Tract 4a Of Asls 96-31, Hollis, Alaska 99921",55.482269998399,-132.650099980016
"100 Heather Street Unit 2, Thorne Bay, Alaska 99950",55.666,-132.528
"117 Kasaan St, Kasaan, Alaska 99950",55.5396,-132.404
"1563 Main St, Skagway, Alaska 99840",59.463209984574,-135.307399991577
"Block 9 Tract A, Port Alexander, Alaska 99836",56.247097,-134.646953
"1010 Sandy Beach Rd, Thorne Bay, Alaska 99919",55.687433246058,-132.527598257359
"100 Heather St, Naukati, Alaska 99950",55.868435926613,-133.206449455447
"102 Nw Fairbanks Ave, Coffman Cove, Alaska 99918",56.014069987468,-132.828000007583
"126 Bayview Rd, Whale Pass, Alaska 99950",56.117139987702,-133.122000039146
"89 Front St, Tanana, Alaska 99777",65.329839,-151.957314
"55 E Broadway, Unalaska, Alaska 99685",53.87394246846,-166.533430515709
"319 Robe River Dr, Valdez, Alaska 99686",61.093755806349,-146.1958502326
"127 Lake St, Aleknagik, Alaska 99555",59.280740993188,-158.624836757113
"29 Old Airport Way, New Stuyahok, Alaska 99636",59.450493366687,-157.325220405464
"#5 Twin Hills School Rd, Twin Hills, Alaska 99576",59.0767,-160.281
"1 Dixon Circle, Saint Mary's, Alaska 99658",62.054057041659,-163.178652144236
"50 Togiak School Lane, Togiak, Alaska 99678",59.055840018697,-160.425199959625
"5052 Nushagak Way, Koliganek, Alaska 99576",59.0392293,-158.4628622
"130 Heights Rd, Manokotak, Alaska 99628",58.928019,-158.908625
"305 Baranof St, Sitka, Alaska 99835",57.052800020693,-135.330800002129
"509 Lincoln, Sitka, Alaska 99835",57.051245336255,-135.331302929471
"1000 Lake St, Sitka, Alaska 99835",57.061770439922,-135.34185363561
"310 River Rd, Beaver, Alaska 99724",66.3540726,-147.3847113
"305 Mountain St, Arctic Village, Alaska 99722",68.127637281536,-145.4715290833
"129 Main St, Fort Yukon, Alaska 99740",66.5631807,-145.272265
"310 Reid St, Wrangell, Alaska 99929",56.472560744872,-132.38156474794
"#1 Marten Hill Dr, Chalkyitsik, Alaska 99788",66.642168095154,-143.740180024245
"360 Chandalar Dr, Venetie, Alaska 99781",67.027532,-146.409455
"161 Milepost Steese Hwy, Circle, Alaska 99733",65.825135895704,-144.066486318048
"4762 Old Airport Way, Fairbanks, Alaska 99709",64.834525416425,-147.829268363067
"123 Front St, Nulato, Alaska 99765",64.714598603311,-158.121209789749
"3rd Street Complex, Allakaket, Alaska 99720",66.563163898456,-152.652016208243
"Moose Loop 4, Hughes, Alaska 99745",66.0478818,-154.2588726
"Huslia School Blvd, Huslia, Alaska 99746",65.7013142,-156.3932729
"Main St, Kaltag, Alaska 99748",64.3274202,-158.7227352
"1st & Hilltop, Ruby, Alaska 99768",64.737582,-155.4836739
"429 Forest Hwy, Yakutat, Alaska 99689",59.531448603698,-139.710169370098
"13 Wiehl Way, Rampart, Alaska 99767",65.503400017276,-150.171800027681
"Laker One St, Minto, Alaska 99758",65.12375,-149.751577
"Akiachak #51100, Akiachak, Alaska 99551",60.888708,-161.397681
"Akiak # 5227, Akiak, Alaska 99552",60.8915843,-161.2043747
"429 Forest Hwy, Yakutat, Alaska 99689",59.531448603698,-139.710169370098
"Tuluksak # 115, Tuluksak, Alaska 99679",61.107769,-160.952397
"1547 E Lipan Blvd, Fort Mohave, Arizona 86426",34.982477421077,-114.596585771374
"10720 E 22nd St, Tucson, Arizona 85748",32.206255988221,-110.765867459242
"20050 W Indian School Rd, Buckeye, Arizona 85396",33.493723194309,-112.490802719247
"530 E Riley Dr, Avondale, Arizona 85323",33.439012194038,-112.344522392938
"111 N Well Rd, Ajo, Arizona 85321",32.372799706965,-112.858972902572
"5040 S Campbell Ave, Tucson, Arizona 85706",32.160504567794,-110.943443206613
"15778 W Yuma Rd, Goodyear, Arizona 85338",33.435580910835,-112.398936969432
"14802 W Wigwam Blvd, Goodyear, Arizona 85395",33.493399253083,-112.379549462721
"7033 W. Catus Road, Peoria, Arizona 85381",33.596005703885,-112.210112076556
"945 W Apache Trl, Apache Junction, Arizona 85120",33.414993564888,-111.556293219969
"433 N Hall, Mesa, Arizona 85203",33.423349648292,-111.793489647214
"6024 N Perryville Rd, Waddell, Arizona 85355",33.524566540991,-112.462712750362
"2616 E Greenway Rd, Phoenix, Arizona 85032",33.626374151866,-112.026027962558
"4105 E Shea Blvd, Phoenix, Arizona 85028",33.582688227778,-111.993199106116
"6201 N 35th Ave, Phoenix, Arizona 85017",33.527653170989,-112.134191732454
"2471 N. Arizona Ave., Chandler, Arizona 85225",33.342547194959,-111.841673405843
"1122 S 67th Ave, Phoenix, Arizona 85043",33.438012637234,-112.203754523995
"14582 N. Sarival Ave, Surprise, Arizona 85379",33.617068529251,-112.409530775818
"8325 S Central Ave, Phoenix, Arizona 85042",33.371196787178,-112.073160892772
"510 N Central Ave, Avondale, Arizona 85323",33.440040827702,-112.349748589865
"3835 W Thomas Rd, Phoenix, Arizona 85019",33.480412024969,-112.141681799719
"6913 E Rembrandt Ave, Mesa, Arizona 85212",33.341175581767,-111.685033899698
"8885 W Peoria Ave, Peoria, Arizona 85345",33.580820469367,-112.250524383064
"1515 S Val Vista Dr, Gilbert, Arizona 85296",33.322947909852,-111.755588984118
"1070 S Higley Rd, Gilbert, Arizona 85296",33.328974725858,-111.721307062551
"463 W. Combs Rd, San Tan Valley, Arizona 85141",33.219720592845,-111.57288793139
"4380 N. Hunt Hwy, Florence, Arizona 85312",33.068046941005,-111.486486146577
"7729 E. Pecos Road, Mesa, Arizona 85212",33.285213375616,-111.667005800787
"1143 S Lindsay Rd, Mesa, Arizona 85204",33.394465324073,-111.771130937539
"23908 S Hawes Rd, Queen Creek, Arizona 85142",33.231275117671,-111.651796764184
"266 E Pastime Rd, Tucson, Arizona 85705",32.275602696908,-110.9679775154
"43775 North Black Canyon Highw, Phoenix, Arizona 85087",33.882811983993,-112.145228037678
"7500 E Civic Cir, Prescott Valley, Arizona 86314",34.596562040612,-112.335055470977
"2475 W Naranja Dr, Oro Valley, Arizona 85742",32.409783680093,-111.021079819397
"125 W Yavapai Rd, Tucson, Arizona 85705",32.269615289391,-110.972618052155
"3400 Dysart Rd, Avondale, Arizona 85007",33.484732187663,-112.341005123735
"1440 S Longmore, Mesa, Arizona 85202",33.388413953418,-111.86387310789
"25 W Calle Concordia, Oro Valley, Arizona 85704",32.373548487244,-110.970219422795
"450 E Wetmore Rd, Tucson, Arizona 85705",32.28652753649,-110.964650015824
"9168 S. Ave 36e, Wellton, Arizona 85356",32.689035821976,-114.022206168803
"4525 E. Baseline Road, Gilbert, Arizona 85234",33.379164579245,-111.737702415915
"2525 S Ironwood Dr, Apache Junction, Arizona 85120",33.389353090948,-111.563319532207
"9168 South Ave 36 East, Wellton, Arizona 85356",32.689035821976,-114.022206168803
"2002 E Baseline Rd, Phoenix, Arizona 85042",33.377929728374,-112.038673431019
"1440 S Longhorn, Mesa, Arizona 85202",33.388413953418,-111.86387310789
"4125 N 14th St, Phoenix, Arizona 85014",33.495749312404,-112.051947239455
"7654 N 19th Ave, Phoenix, Arizona 85021",33.548698229845,-112.099712930291
"2500 S Power Rd Ste 215, Mesa, Arizona 85209",33.370125018687,-111.687814748867
"7350 E. Innovation Way South, Mesa, Arizona 85212",33.305155357022,-111.673898450878
"4125 N. 14th Street, Phoenix, Arizona 85014",33.495749312404,-112.051947239455
"1410 N 3rd St, Phoenix, Arizona 85004",33.464164611065,-112.069424671976
"1200 W Speedway Blvd, Tucson, Arizona 85745",32.235649295091,-110.989323534276
"735 E Fillmore St, Phoenix, Arizona 85006",33.45452622314,-112.064107917136
"2612 W Gila Bend Hwy, Casa Grande, Arizona 85193",32.87944624531,-111.844125036807
"4445 S 12th St, Phoenix, Arizona 85040",33.405924329255,-112.055747577794
"335 E Germann Rd Ste 140, Gilbert, Arizona 85297",33.277039855382,-111.78408887786
"46999 N. Fifth Street, Ash Fork, Arizona 86320",35.22131106128,-112.486267226043
"649 N 6th Ave, Phoenix, Arizona 85003",33.455252233225,-112.081326841994
"2500 S Power Rd Ste 215, Mesa, Arizona 85209",33.370125018687,-111.687814748867
"3775 E Union Hills Dr, Phoenix, Arizona 85050",33.655130187573,-112.00161342161
"5740 E River Rd, Tucson, Arizona 85750",32.273466842737,-110.87138056119
"10210 S 50th Pl, Phoenix, Arizona 85044",33.353350785695,-111.974916267696
"4825 S Arizona Ave, Chandler, Arizona 85248",33.23684608904,-111.841092926335
"11155 N Oracle Rd, Oro Valley, Arizona 85737",32.409992787127,-110.941353436896
"11850 N 32nd St, Phoenix, Arizona 85028",33.594220914807,-112.013214491798
"10400 N 128th St, Scottsdale, Arizona 85259",33.580636146446,-111.804771798412
"2020 N Arizona Ave Ste G62, Chandler, Arizona 85225",33.335166886394,-111.841775114117
"1130 E University Dr Ste 230, Tempe, Arizona 85281",33.422089078584,-111.92069128978
"9902 W Yearling Rd, Peoria, Arizona 85383",33.717861175415,-112.272155057407
"1901 Prescott Lakes Pkwy, Prescott, Arizona 86301",34.587211775773,-112.433722690823
"1700 N Gemini Dr, Flagstaff, Arizona 86001",35.208029743403,-111.635306622593
"100 Sultan Way, Bagdad, Arizona 86321",34.574276248261,-113.184214221865
"100 Sultan Way, Bagdad, Arizona 86321",34.574276248261,-113.184214221865
"7318 W Lynwood St, Phoenix, Arizona 85035",33.464536183903,-112.216903675675
"15800 W Sherman St, Goodyear, Arizona 85338",33.43974185802,-112.39824525658
"80 Turkey Creek Rd, Blue, Arizona 85922",33.636389981786,-109.092100024732
"5651 W Talavi Blvd Ste 170, Glendale, Arizona 85306",33.636673078339,-112.180513829573
"7620 W Lower Buckeye Rd Ste 10, Phoenix, Arizona 85043",33.423037189903,-112.223795152668
"6000 E 14th St, Tucson, Arizona 85711",32.216889978552,-110.864125142156
"67488 E Salome Rd, Salome, Arizona 85348",33.774529440109,-113.600755355592
"325 School Terrace Road, Bisbee, Arizona 85603",31.415200015258,-109.888700009272
"5010 S Eastmark Pkwy, Mesa, Arizona 85212",33.32533265815,-111.615326172516
"197 E 7th St, Benson, Arizona 85602",31.965144555437,-110.296902709197
"197 E 7th St, Benson, Arizona 85602",31.965144555437,-110.296902709197
"360 S Patagonia St, Benson, Arizona 85602",31.966180817829,-110.298134005191
"18864 E Germann Rd, Queen Creek, Arizona 85142",33.278108181952,-111.676101842136
"Indian Route 19, Topawa, Arizona 85634",31.810307526718,-111.822958159205
"111 Main Street, Sells, Arizona 85634",31.913010003936,-111.881699996014
"1200 W White Mountain Blvd, Lakeside, Arizona 85929",34.147688962274,-109.964530277695
"675 School Terrace Rd., Bisbee, Arizona 85603",31.414810005303,-109.888300024852
"13033 S Estrella Pkwy, Goodyear, Arizona 85338",33.324454950459,-112.425076401035
"1326 N Montezuma Castle Hwy, Camp Verde, Arizona 86322",34.587748976747,-111.855951789723
"464 S Main St, Camp Verde, Arizona 86322",34.562639916111,-111.853854603641
"8981 E Tanque Verde Rd Ste 281, Tucson, Arizona 85749",32.258155224841,-110.80002296285
"751 N 215th Ave, Buckeye, Arizona 85326",33.455579089207,-112.510430441085
"1300 North Centennial Blvd, Taylor, Arizona 85939",34.480919993706,-110.097300014504
"3816 N 27th Ave, Phoenix, Arizona 85017",33.492192540853,-112.117120830482
"3816 N 27th Ave, Phoenix, Arizona 85017",33.492192540853,-112.117120830482
"3000 S Apache Rd, Buckeye, Arizona 85326",33.421695308759,-112.573673326569
"315w. 5th Street, Bowie, Arizona 85605",32.325459738414,-109.490223494121
"2401 S Wilmot Rd, Tucson, Arizona 85711",32.193992146894,-110.857860939895
"462 S Main St, Camp Verde, Arizona 86322",34.562666008182,-111.853866936218
"902 E Eason Ave, Buckeye, Arizona 85326",33.373204215146,-112.578645437457
"2321 E Bell Rd, Phoenix, Arizona 85022",33.6404345589,-112.032536020823
"1120 S. Gilbert Rd., Gilbert, Arizona 85296",33.329656694376,-111.790039552869
"16635 N 51st Ave, Glendale, Arizona 85306",33.63573913021,-112.168654110039
"1951 N Alma School Rd, Chandler, Arizona 85224",33.334322924923,-111.859004630782
"33016 N 60th St, Scottsdale, Arizona 85266",33.78487055103,-111.952062274552
"4300 E Sunrise Dr, Tucson, Arizona 85718",32.308209688982,-110.900347002384
"3777 W 22nd Ln, Yuma, Arizona 85364",32.687203892838,-114.66329860753
"1556 N Arizola Rd, Casa Grande, Arizona 85122",32.893487148994,-111.713926519353
"4141 N 67th Ave, Phoenix, Arizona 85033",33.495613545743,-112.203159072713
"Us Hwy 191, Chinle, Arizona 86503",36.176658397143,-109.589024529708
"900 Carmelita Dr, Sierra Vista, Arizona 85635",31.558514281115,-110.290142579975
"2730 N Trekell Rd, Casa Grande, Arizona 85122",32.932810870221,-111.739431058071
"5802 E. Dove Valley Rd., Scottsdale, Arizona 85266",33.783637481622,-111.957196883937
"8632 W Northern Ave, Glendale, Arizona 85305",33.552003007695,-112.244947529307
"760 E Center St, Chino Valley, Arizona 86323",34.745650025886,-112.449372100936
"510 N G Ave, Douglas, Arizona 85607",31.339404661977,-109.554612547625
"19 Rte 27, Chinle, Arizona 86503",36.005222897915,-109.5429973074
"3700 S Arizona Ave, Chandler, Arizona 85248",33.252699856298,-111.842571427972
"255 N. Cottonwood St., Colorado City, Arizona 86021",36.99540000269,-113.004000034651
"7205 N Pima Rd, Scottsdale, Arizona 85258",33.541254357348,-111.891377864425
"24901 S Power Rd, Queen Creek, Arizona 85142",33.223221598138,-111.68578508298
"1919 E Queen Creek Rd, Gilbert, Arizona 85297",33.263082595869,-111.749150279169
"1205 E Frye Rd Bldg B, Chandler, Arizona 85225",33.298908980167,-111.821888557601
"1169 Colombo Ave, Sierra Vista, Arizona 85635",31.562750940825,-110.247435153667
"4477 S Gilbert Rd, Chandler, Arizona 85249",33.242896927168,-111.78581940559
"2384 N. Steves Blvd., Flagstaff, Arizona 86004",35.209146620358,-111.60426130707
"350 N Arizona Ave, Chandler, Arizona 85225",33.308907965344,-111.841505347472
"48 E Pennington St, Tucson, Arizona 85701",32.222612089331,-110.972257604889
"583 South Lake Powell Boulevar, Page, Arizona 86040",36.906448983078,-111.470857994385
"5990 S Val Vista Dr, Chandler, Arizona 85249",33.219446302417,-111.755698566105
"5221 Highway 95 Ste 5, Fort Mohave, Arizona 86426",35.005320636462,-114.598133824928
"2384 N. Steves Blvd., Flagstaff, Arizona 86004",35.209146620358,-111.60426130707
"2251 Highway 95, Bullhead City, Arizona 86442",35.1056411058,-114.598156402386
"800 W Northern Ave, Coolidge, Arizona 85128",32.980722420467,-111.530515359051
"5741 E Ironwood St Bldg 623, Tucson, Arizona 85708",32.181136297299,-110.868690645243
"2250 E Laguna Rd, Mohave Valley, Arizona 86440",34.895124538053,-114.564360895448
"450 N Arizona Blvd, Coolidge, Arizona 85128",32.981301380569,-111.524059134193
"450 N Arizona Blvd, Coolidge, Arizona 85128",32.981301380569,-111.524059134193
"7107 N Black Canyon Hwy, Phoenix, Arizona 85021",33.539538457558,-112.111807881688
"715 W. Mariposa St., Phoenix, Arizona 85013",33.508381534253,-112.082734124205
"351 W. Prince Rd., Tucson, Arizona 85705",32.271894697891,-110.977394989038
"2975 W Linda Ln, Chandler, Arizona 85224",33.317784595749,-111.893286305018
"251 W Irvington Rd, Tucson, Arizona 85714",32.163183713385,-110.972419100827
"2325 W Sunset Rd, Tucson, Arizona 85741",32.308580546625,-111.016852104697
"8250 E 22nd St # 128, Tucson, Arizona 85710",32.206352057448,-110.816430411237
"6313 W Southern Ave, Laveen, Arizona 85339",33.391773601169,-112.193239297291
"551 1st St, Prescott, Arizona 86301",34.550322127987,-112.472226252627
"18424 N 51st Ave, Glendale, Arizona 85308",33.652765834801,-112.169058555598
"10909 N Perryville Rd, Surprise, Arizona 85388",33.581027063599,-112.461449622258
"5821 W Beverly Ln, Glendale, Arizona 85306",33.633668861277,-112.182394471532
"18424 N 51st Ave, Glendale, Arizona 85308",33.652765834801,-112.169058555598
"326 W Fort Lowell Rd, Tucson, Arizona 85705",32.264764290273,-110.976437904971
"4837 E Mcdowell Rd, Phoenix, Arizona 85008",33.465597511907,-111.977618378804
"108 Stadium Street, Duncan, Arizona 85534",32.724199990148,-109.109800005848
"1500 E 15th St, Douglas, Arizona 85607",31.349635686545,-109.538837421863
"301 N Willard St, Cottonwood, Arizona 86326",34.739612227924,-112.027245188394
"20402 N 15th Ave, Phoenix, Arizona 85027",33.671700352623,-112.091615059915
"25250 N. 35th Avenue, Glendale, Arizona 85310",33.718053355682,-112.138216575672
"19825 N 15th Ave, Phoenix, Arizona 85027",33.665823628041,-112.091455120339
"22800 N 67th Ave, Glendale, Arizona 85310",33.690943512038,-112.203180908708
"2820 W Rose Garden Ln, Phoenix, Arizona 85027",33.676596407489,-112.120426563639
"40404 N Gavilan Peak Pkwy, Anthem, Arizona 85086",33.848511461615,-112.138312630967
"15550 N Parkview Pl, Surprise, Arizona 85374",33.63715109275,-112.381146384981
"19265 N Porter Rd, Maricopa, Arizona 85138",33.055115442052,-112.013408670093
"17901 W Lundberg St, Surprise, Arizona 85388",33.636150232148,-112.444342791
"2555 E 1st St # 111, Tucson, Arizona 85716",32.234993614533,-110.93452134215
"231 W Giaconda Way Ste 113, Tucson, Arizona 85704",32.334819312997,-110.975529763532
"982 Full House Ln, Show Low, Arizona 85901",34.284405351749,-110.12182068551
"6710 West Calle Lejos, Peoria, Arizona 85383",33.703630150795,-112.203371455213
"11425 N Dysart Rd, El Mirage, Arizona 85335",33.587566068635,-112.341808199127
"2030 E Cherry St, Cottonwood, Arizona 86326",34.731889853891,-112.005192161705
"1460 S Horne, Mesa, Arizona 85204",33.388025750102,-111.814309039394
"15802 N Parkview Pl, Surprise, Arizona 85374",33.636096835508,-112.38124409267
"1460 E Horne, Mesa, Arizona 85204",33.388025750102,-111.814309039394
"41900 N 42nd Ave, Anthem, Arizona 85086",33.864511020418,-112.149121012608
"480 N Grand Ave, Nogales, Arizona 85621",31.340580177813,-110.937937283326
"8495 E Broadway Blvd, Tucson, Arizona 85710",32.221016797221,-110.810959015612
"3401 N Fort Valley Rd, Flagstaff, Arizona 86001",35.237981097348,-111.668375200384
"2801 N Izabel St, Flagstaff, Arizona 86004",35.214495243852,-111.622559871076
"6213 S. Miller Ave., Buckeye, Arizona 85326",33.39029479405,-112.590860457278
"4000 N Cummings St, Flagstaff, Arizona 86004",35.225441683846,-111.585755032657
"1035 E. Van Buren Street, Avondale, Arizona 85323",33.448593273502,-112.335877107613
"3515 W Union Hills Dr Ste 119, Glendale, Arizona 85308",33.654582562397,-112.134850268263
"4848 S 2nd St, Phoenix, Arizona 85040",33.402242060759,-112.071179523168
"16578 W Greenway Rd Ste 204 Bl, Surprise, Arizona 85388",33.624376773765,-112.415200513112
"4567 W Roberts Rd, Queen Creek, Arizona 85142",33.176076575258,-111.615257063636
"580 W Melody Ave, Gilbert, Arizona 85233",33.375392520203,-111.802279120119
"4000 N Cummings St, Flagstaff, Arizona 86004",35.225441683846,-111.585755032657
"4744 W Grovers Ave, Glendale, Arizona 85308",33.647325970097,-112.161683735129
"9640 N Metro Pkwy W Unit 147, Phoenix, Arizona 85051",33.579499871589,-112.121679397542
"400 W Elm Ave, Flagstaff, Arizona 86001",35.203604867649,-111.651409645077
"4744 W Grovers Ave, Glendale, Arizona 85308",33.647325970097,-112.161683735129
"221 E Hortt Street, Fredonia, Arizona 86022",36.950883750732,-112.522187634904
"16100 E Palisades Blvd, Fountain Hills, Arizona 85268",33.614919988259,-111.735499990981
"16100 E Palisades Blvd, Fountain Hills, Arizona 85268",33.614919988259,-111.735499990981
"1556 W Prince Rd, Tucson, Arizona 85705",32.272291531441,-110.999845953586
"1255 W Silverdale Rd, Queen Creek, Arizona 85142",33.13938230888,-111.57969943787
"297 E Us Highway 70, Bylas, Arizona 85530",33.132367035631,-110.120302614484
"Hwy 264, Ganado, Arizona 86505",35.754600897221,-109.626954076643
"225 S. Orlando Street, Florence, Arizona 85132",33.028080022441,-111.384856734138
"4125 W Aerie Dr, Tucson, Arizona 85741",32.33447784325,-111.049619074252
"3725 N Flowing Wells Rd, Tucson, Arizona 85705",32.274489033759,-110.99508539826
"1833 N Scottsdale Rd, Tempe, Arizona 85281",33.45055671272,-111.926391794168
"225 S. Orlando Street, Florence, Arizona 85132",33.028080022441,-111.384856734138
"Highway 70, Fort Thomas, Arizona 85536",33.022383743536,-109.955924337118
"32375 N Gantzel Rd, San Tan Valley, Arizona 85143",33.173645240619,-111.545328789311
"1001 S Main St, Florence, Arizona 85132",33.023157470871,-111.38746945382
"3870 S Quartz St, Gilbert, Arizona 85297",33.278821162682,-111.759788462837
"140 S Gilbert Rd, Gilbert, Arizona 85296",33.347483010462,-111.789661828112
"23276 N 83rd Ave Ste 1, Peoria, Arizona 85383",33.69514529555,-112.237742815373
"Indian Rte. 6 Mp 10.5, San Carlos, Arizona 85550",33.355851986503,-110.470612933898
"35 W Dunlap Ave, Phoenix, Arizona 85021",33.567626929456,-112.076449388138
"6602 N 75th Ave, Glendale, Arizona 85303",33.532314946809,-112.220561875231
"4301 E Guadalupe Rd, Gilbert, Arizona 85234",33.364899579262,-111.700000458403
"525 E Mcdowell Rd, Phoenix, Arizona 85004",33.465654584461,-112.065950796873
"8194 W. Deer Valley Rd Ste B10, Peoria, Arizona 85382",33.681647632316,-112.235570465506
"500 S Mcqueen Rd, Gilbert, Arizona 85233",33.340368167677,-111.824375261711
"55 N Greenfield Rd, Gilbert, Arizona 85234",33.350981336733,-111.738359311302
"308 N Martin Ave, Gila Bend, Arizona 85337",32.951186207962,-112.717424467297
"1101 E Elliot Rd, Gilbert, Arizona 85234",33.349779361643,-111.813042359192
"10045 E Madero Ave, Mesa, Arizona 85209",33.371469573978,-111.615424996981
"1750 W Thunderbird Rd, Phoenix, Arizona 85023",33.611087206213,-112.096096280362
"3625 W Cactus Rd, Phoenix, Arizona 85029",33.596325570341,-112.13566517893
"6216 W Glendale Ave, Glendale, Arizona 85301",33.538529184274,-112.193208354478
"4530 W Northern Ave, Glendale, Arizona 85301",33.553159168698,-112.1565360345
"460 N Willow St, Globe, Arizona 85501",33.398617258502,-110.790605751467
"824 N. Thorne Ave, Winkelman, Arizona 85292",32.994838232638,-110.771211986789
"#1 Boulder Street, Grand Canyon Village, Arizona 86023",36.053001558418,-112.141742528952
"4530 W Northern Ave, Glendale, Arizona 85301",33.553159168698,-112.1565360345
"8828 N 31st Ave, Phoenix, Arizona 85051",33.566217455109,-112.125618567419
"3450 Mustang Ave., Heber, Arizona 85928",34.433365846847,-110.586682622699
"350 E 18th St, Yuma, Arizona 85364",32.694937408955,-114.617884728514
"146 E 4th Street, Pima, Arizona 85543",32.889769986686,-109.824300003156
"2217 W Glendale Ave, Phoenix, Arizona 85021",33.538562112926,-112.105435697768
"437 S High Street, Globe, Arizona 85501",33.393750758432,-110.781728575832
"3930 W Greenway Rd, Phoenix, Arizona 85053",33.625228308315,-112.143180621223
"8045 N 47th Ave, Glendale, Arizona 85302",33.555606781055,-112.160162773259
"1333 E 10th St, Tucson, Arizona 85719",32.222599295209,-110.951876066933
"455 N 8th Ave, Holbrook, Arizona 86025",34.906696138972,-110.168849857433
"32 S Center St, Mesa, Arizona 85210",33.414400141597,-111.83154506204
"4275 W Baseline Rd, Laveen, Arizona 85339",33.377553600883,-112.150470086111
"19630 E.germann Road, Queen Creek, Arizona 85242",33.277680861845,-111.634983439135
"14850 N 156th Ave, Surprise, Arizona 85379",33.618858047758,-112.396051419646
"2935 S Recker Rd, Gilbert, Arizona 85295",33.295737053934,-111.703621114297
"1855 S Country Club Dr, Mesa, Arizona 85210",33.381384941024,-111.840053383982
"1105 E Broadway Rd, Tempe, Arizona 85282",33.407451584942,-111.922433378423
"4068 E Pecos Rd, Gilbert, Arizona 85295",33.29358141557,-111.701982352744
"1427 E. Bell Rd. Ste 102-103, Phoenix, Arizona 85022",33.640320092081,-112.05193905564
"2222 W Northern Ave Ste A110, Phoenix, Arizona 85021",33.553159166036,-112.10592947659
"16233 S 48th St, Phoenix, Arizona 85048",33.299519108522,-111.98026045847
"1105 E Broadway Rd, Tempe, Arizona 85282",33.407451584942,-111.922433378423
"2076 S. Higley Road, Gilbert, Arizona 85236",33.313014637379,-111.721197621746
"5201 N 7th St, Phoenix, Arizona 85014",33.512910925116,-112.064936467095
"2675 Palo Verde Blvd S, Lake Havasu City, Arizona 86403",34.493930385467,-114.315315897613
"6000 E Long Look Dr, Prescott Valley, Arizona 86314",34.600497900788,-112.348227171389
"4290 S Miller Rd Ste 102, Buckeye, Arizona 85326",33.407824153876,-112.590947509721
"3660 W Glendale Ave, Phoenix, Arizona 85051",33.538555780315,-112.138151966621
"5850 W Northview Ave, Glendale, Arizona 85301",33.543200990946,-112.185411977517
"1290b W Vah Ki Inn Rd, Coolidge, Arizona 85128",32.987871838636,-111.53697609611
"4182 N Bank St, Kingman, Arizona 86409",35.250189568515,-114.011469059241
"41004 W Lucera Ln, Maricopa, Arizona 85138",33.048450016905,-112.007199969146
"2200 Havasupai Blvd, Lake Havasu City, Arizona 86403",34.497570838786,-114.331403650818
"2150 Southern Avenue Ste 713, Tempe, Arizona 85282",33.393503927343,-111.893865322645
"5815 S Mcclintock Dr, Tempe, Arizona 85283",33.370213576892,-111.911208179745
"1843 W 16th Ave, Apache Junction, Arizona 85120",33.400499660667,-111.565689821216
"6000 E Long Look Dr, Prescott Valley, Arizona 86314",34.600497900788,-112.348227171389
"400 Grandview Ave, Kingman, Arizona 86401",35.192624989363,-114.061246058761
"4629 2nd North, Joseph City, Arizona 86032",34.959290001988,-110.322199971565
"2200 N Arizona Ave Ste 17, Chandler, Arizona 85225",33.337224218592,-111.84178575034
"2505 E Germann Rd, San Tan Valley, Arizona 85140",33.27807881057,-111.541447265937
"44150 W Maricopa Casa Grande H, Maricopa, Arizona 85138",33.054305053168,-112.043133028399
"3033 Macdonald Ave, Kingman, Arizona 86401",35.214269510244,-114.015398638817
"45012 W Honeycutt Ave, Maricopa, Arizona 85139",33.053029231757,-112.052579825741
"217 E Olympic Dr, Phoenix, Arizona 85042",33.374052597244,-112.071197090724
"301 E Combs Rd, San Tan Vly, Arizona 85140",33.21988687088,-111.561643596687
"3420 N Burbank St, Kingman, Arizona 86409",35.224160020457,-114.029097417192
"1376 E Cottonwood Ln, Casa Grande, Arizona 85122",32.894230475922,-111.726322200843
"728 E Mcdowell Rd, Phoenix, Arizona 85006",33.465769175695,-112.063118101159
"4386 W Bethany Home Rd, Glendale, Arizona 85301",33.523983979663,-112.152965722516
"38300 N Gantzel Rd, San Tan Vly, Arizona 85140",33.226700734766,-111.563428826372
"1376 E Cottonwood Ln, Casa Grande, Arizona 85122",32.894230475922,-111.726322200843
"Highway 163, Kayenta, Arizona 86033",36.739632428056,-110.240536399839
"3901 W Linda Vista Blvd, Tucson, Arizona 85742",32.380716839785,-111.048983399616
"711 S Mcnab Pkwy, San Manuel, Arizona 85631",32.598703788872,-110.629462269428
"3470 E Rio Virgin Rd, Beaver Dam, Arizona 86432",36.905950008382,-113.929099959288
"11279 W Grier Rd # 115a, Marana, Arizona 85653",32.453284588369,-111.20735485329
"3740 N Toltec Rd, Eloy, Arizona 85131",32.789419997851,-111.620300035747
"1431 E. Campbell Ave, Phoenix, Arizona 85014",33.50189729661,-112.049682111186
"7420 E Main St, Mesa, Arizona 85207",33.416926652853,-111.670971993204
"13650 N Mcduff Rd Ste 128, Marana, Arizona 85653",32.454250336941,-111.209397821808
"633 E Ray Rd Ste 132, Gilbert, Arizona 85296",33.321042589279,-111.776655243599
"12000 W Emigh Rd, Tucson, Arizona 85743",32.366239287658,-111.228114770836
"717 W Ray Rd, Gilbert, Arizona 85233",33.320844590747,-111.804574870578
"6401 S 16th St, Phoenix, Arizona 85042",33.389154480411,-112.047262470411
"1300 E Cedar St, Globe, Arizona 85501",33.400835117046,-110.775945331331
"108 N 40th St, Phoenix, Arizona 85034",33.446186617966,-111.995530349194
"17300 E Mule Deer Dr, Mayer, Arizona 86333",34.347728945712,-112.158448563938
"3310 N 10th Ave, Phoenix, Arizona 85013",33.486178724509,-112.08620052262
"10720 W Indian School Rd., Phoenix, Arizona 85037",33.493756891951,-112.291437987919
"1700 N. 7th Ave., Phoenix, Arizona 85007",33.466837399664,-112.082721835963
"2700 E Brown Rd, Mesa, Arizona 85213",33.437293164495,-111.773535828874
"855 W 8th Ave, Mesa, Arizona 85210",33.400404944431,-111.849692903117
"4639 E. Ragus Road, Miami, Arizona 85539",33.41081000092,-110.833200016447
"1501 W Guadalupe Rd, Mesa, Arizona 85202",33.36412452902,-111.866163838282
"1025 N Country Club Dr, Mesa, Arizona 85201",33.433095009206,-111.839831956296
"5522 Side Rd, Prescott, Arizona 86301",34.634958005324,-112.404976296335
"1801 E Fir St, Cottonwood, Arizona 86326",34.717671413177,-112.011187978114
"1801 E Fir St, Cottonwood, Arizona 86326",34.717671413177,-112.011187978114
"7301 E Brown Rd, Mesa, Arizona 85207",33.436872567969,-111.673853220012
"845 S Crismon Rd, Mesa, Arizona 85208",33.39968000697,-111.613599961444
"945 W Rio Salado Pkwy, Mesa, Arizona 85201",33.429242141279,-111.850233074208
"1630 E Southern Ave, Mesa, Arizona 85204",33.393529868932,-111.796253752404
"3686 W Orange Grove Rd Ste 192, Tucson, Arizona 85741",32.323345284994,-111.043243982624
"1600 S Kofa Ave, Parker, Arizona 85344",34.143325771097,-114.287971969356
"294 W Carlos Ave, Holbrook, Arizona 86025",34.928607788495,-110.144181765959
"1216 E Apache Blvd, Tempe, Arizona 85281",33.414835891263,-111.91993175185
"3001 W. Indian School, Phoenix, Arizona 85017",33.494913583468,-112.123164673559
"451 N. Arroyo Blvd, Nogales, Arizona 85621",31.340376679338,-110.93888251617
"1 Stadium Dr, Morenci, Arizona 85540",33.044117735413,-109.31885311891
"32919 N Center St, Wittmann, Arizona 85361",33.78161393046,-112.525584043743
"1402 N San Antonio Ave, Douglas, Arizona 85607",31.348631999152,-109.532369424
"14100 N 32nd St, Phoenix, Arizona 85032",33.614477939476,-112.013353131352
"451 N Arroyo Blvd, Nogales, Arizona 85621",31.340376679338,-110.93888251617
"625 Marina Blvd, Bullhead City, Arizona 86442",35.100781108047,-114.626048017316
"1905 N Apache Blvd, Nogales, Arizona 85621",31.366202182619,-110.951571809095
"3300 W. Sparrow Ave., Flagstaff, Arizona 86004",35.199494387136,-111.607120766842
"1001 S Kofa Ave, Parker, Arizona 85344",34.149245971209,-114.291457847885
"2902 E Shea Blvd, Phoenix, Arizona 85028",33.582438628418,-112.01954928045
"5601 E Greenway Rd, Scottsdale, Arizona 85254",33.625935328911,-111.960253455775
"2226 N 7th St, Phoenix, Arizona 85006",33.471525739392,-112.065173167857
"500 South Navajo, Page, Arizona 86040",36.912521630019,-111.45841681932
"2222 W Northern Ave Ste A110, Phoenix, Arizona 85021",33.553159166036,-112.10592947659
"434 South Lake Powell, Page, Arizona 86040",36.910960949446,-111.456401289864
"1700 E Union Hls Dr, Phoenix, Arizona 85024",33.655003149057,-112.046502713576
"15002 N 32nd St, Phoenix, Arizona 85032",33.622696877003,-112.013396586702
"200 Naugle Avenue, Patagonia, Arizona 85624",31.541692032189,-110.752052585622
"301 S Mclane Rd, Payson, Arizona 85541",34.236582327299,-111.335089788096
"4961 W Bell Rd Ste B9, Glendale, Arizona 85308",33.639012233938,-112.166120047884
"500 S Navajo Dr, Page, Arizona 86040",36.912521630019,-111.45841681932
"3327 W Peoria Ave, Phoenix, Arizona 85029",33.581898572099,-112.131859627081
"3950 E Bell Rd, Phoenix, Arizona 85032",33.640751613393,-111.997239382103
"3535 E Mayo Blvd, Phoenix, Arizona 85050",33.680360020921,-112.008100017909
"3943 E Thomas Rd, Phoenix, Arizona 85018",33.48037623336,-111.997150113181
"1660 W Valencia Rd, Tucson, Arizona 85746",32.133860947752,-111.000221660949
"440 N Grande Ave, Tucson, Arizona 85745",32.227312824663,-110.989231806699
"2909 W. Bell Road, Phoenix, Arizona 85053",33.639746541018,-112.121637906695
"1589 E Plantation Rd, Mohave Valley, Arizona 86440",34.851634136609,-114.595839336854
"7910 N. 43rd Avenue, Glendale, Arizona 85301",33.551132154442,-112.152150651511
"16428 N 21st St., Phoenix, Arizona 85022",33.636276087201,-112.037401791992
"12775 N 175th Ave, Surprise, Arizona 85388",33.599788308791,-112.435601280202
"1290 N. Scottsdale Road Ste 13, Tempe, Arizona 85281",33.44325999424,-111.927599968355
"3624 West Bell Road Suite 4-6, Glendale, Arizona 85308",33.63958997387,-112.138129311924
"9516 W. Peoria Ave. Ste 19-22, Peoria, Arizona 85345",33.580629331803,-112.264352683287
"4215 E Andora Dr, Phoenix, Arizona 85032",33.607110094405,-111.990432118681
"4041 E Thomas Rd Ste 210, Phoenix, Arizona 85018",33.480360578724,-111.994612683855
"403 Diamond Creek Road, Peach Springs, Arizona 86434",35.535108498056,-113.424050526992
"6711 E 2nd St, Prescott Valley, Arizona 86314",34.580282746937,-112.349431899754
"2055 N Grand Ave, Nogales, Arizona 85621",31.369506517622,-110.931449848082
"4525 N Central Ave, Phoenix, Arizona 85012",33.502451579814,-112.073696748562
"3921 W Baseline Rd, Laveen, Arizona 85339",33.377587464138,-112.143192008781
"512 E Pierce St, Phoenix, Arizona 85004",33.455588694568,-112.067263547806
"3415 N 59th Ave, Phoenix, Arizona 85033",33.488647836863,-112.186347669368
"1900 W Thomas Rd, Phoenix, Arizona 85015",33.480673175593,-112.100039167749
"3333 W Roosevelt St, Phoenix, Arizona 85009",33.458636927488,-112.129627602656
"3005 E Fillmore St, Phoenix, Arizona 85008",33.454908715377,-112.017099369933
"3839 W Camelback Rd, Phoenix, Arizona 85019",33.509382743262,-112.140017327566
"4612 N 28th St, Phoenix, Arizona 85016",33.504361602401,-112.021666922997
"4445 N Central Ave, Phoenix, Arizona 85012",33.501043890262,-112.073700733339
"7402 W Catalina Dr, Phoenix, Arizona 85033",33.482192809199,-112.218526394216
"8225 S 59th Ave, Laveen, Arizona 85339",33.375680886771,-112.184854105902
"1101 E Thomas Rd, Phoenix, Arizona 85014",33.480153582149,-112.059550288198
"1645 W Mcdowell Rd, Phoenix, Arizona 85007",33.465772575392,-112.095031824042
"2510 N Trekell Rd, Casa Grande, Arizona 85122",32.927188356748,-111.739488323682
"2224 W Southern Ave Ste 2, Tempe, Arizona 85282",33.392889130734,-111.970682294136
"2224 W Southern Ave Ste 1, Tempe, Arizona 85282",33.392889130734,-111.970682294136
"1712 E Guadalupe Rd Ste 101, Tempe, Arizona 85283",33.363817181804,-111.912339059608
"3161 N 33rd Ave, Phoenix, Arizona 85017",33.484642040689,-112.12914137801
"130 W Congress St Fl 4, Tucson, Arizona 85701",32.221617721448,-110.974035898004
"1712 E Guadalupe Rd Ste 101, Tempe, Arizona 85283",33.363817181804,-111.912339059608
"4502 N Central Ave, Phoenix, Arizona 85012",33.502135643302,-112.073835349916
"3000 N 19th Ave, Phoenix, Arizona 85015",33.481832370296,-112.100027320056
"5401 S 7th St, Phoenix, Arizona 85040",33.396849777748,-112.064569997885
"1346 N Stone Ave, Tucson, Arizona 85705",32.238968700479,-110.971748191313
"175 W Irvington Rd, Tucson, Arizona 85714",32.16318628146,-110.971230144151
"3701 W Thomas Rd, Phoenix, Arizona 85019",33.480388122258,-112.138721796769
"5310 N 12th St # 100, Phoenix, Arizona 85014",33.515240006854,-112.056799965006
"3535 N 27th Ave, Phoenix, Arizona 85017",33.488518058693,-112.116982174334
"170 S. Main Street, Pima, Arizona 85543",32.893112708668,-109.827296204965
"21200 N 83rd Ave, Peoria, Arizona 85382",33.675199404266,-112.23788298286
"8990 W Orangewood Ave, Glendale, Arizona 85305",33.544797714394,-112.251074875672
"1690 W Irvington Rd, Tucson, Arizona 85746",32.160241738882,-111.001735764792
"1 Mile North Of Hwy 41, Pinon, Arizona 86510",36.111000001482,-110.215600016627
"7565 W Peoria Ave Ste A, Peoria, Arizona 85345",33.581312316071,-112.221365772617
"6051 W Sweetwater Ave, Glendale, Arizona 85304",33.603475818177,-112.189069659059
"131 S. Main, Pima, Arizona 85543",32.893800659214,-109.827159736286
"6330 W Greenway Rd, Glendale, Arizona 85306",33.62517463592,-112.194907494966
"11200 N 83rd Ave, Peoria, Arizona 85345",33.586387846231,-112.237769893695
"9621 W Speckled Gecko Dr, Peoria, Arizona 85383",33.686299843013,-112.267016493027
"585 N. Butler St., Eagar, Arizona 85925",34.101012002526,-109.287219714743
"14388 N 79th Ave, Peoria, Arizona 85381",33.615468614943,-112.228838561846
"550 North Butler St., Eagar, Arizona 85925",34.101507033057,-109.287353685148
"6625 W. Cholla, Peoria, Arizona 85304",33.5889250689,-112.20128635924
"1050 Ruth St, Prescott, Arizona 86301",34.56269942494,-112.476694069991
"9560 E Ray Rd, Mesa, Arizona 85212",33.321445172841,-111.625857654583
"1400 W 11th St, Safford, Arizona 85546",32.827603003396,-109.732016003566
"20217 E Chandler Heights Rd, Queen Creek, Arizona 85142",33.234059268285,-111.647749953296
"5323 N 99th Ave Ste 210, Glendale, Arizona 85305",33.513370464368,-112.272361840071
"300 E Gurley St, Prescott, Arizona 86301",34.54189905351,-112.465786761463
"22149 E Ocotillo Rd, Queen Creek, Arizona 85142",33.248552179832,-111.606333031928
"1695 E Fort Lowell Rd, Tucson, Arizona 85719",32.264872288818,-110.946068258725
"350 W Sahuarita Rd, Sahuarita, Arizona 85629",31.957972334734,-110.975696196216
"7544 W Indian School Rd Ste A2, Phoenix, Arizona 85033",33.494720561018,-112.221668422646
"99 E Virginia Ave Ste 200, Phoenix, Arizona 85004",33.476571583246,-112.071182789032
"350 W Sahuarita Rd, Sahuarita, Arizona 85629",31.957972334734,-110.975696196216
"300 W Discovery Park Blvd, Safford, Arizona 85546",32.802527005869,-109.711550250549
"38201 W Indian School Rd, Tonopah, Arizona 85354",33.493680622789,-112.868693028365
"15510 S. Sahuarita Park Rd, Sahuarita, Arizona 85629",31.97035831491,-110.933534666399
"Navajo Route N13 2miles South, Teec Nos Pos, Arizona 86544",36.6070694,-109.0532907
"900 N Main St, Eloy, Arizona 85131",32.758486247869,-111.554989764065
"4116 Avenida Cochise Suites F, Sierra Vista, Arizona 85635",31.532758437314,-110.256320418901
"N Hwy 160, Teec Nos Pos, Arizona 86514",36.929238586787,-109.081013952368
"1840 E Benson Hwy, Tucson, Arizona 85714",32.169605542156,-110.944221055401
"4827 N Country Club Dr, Scottsdale, Arizona 85256",33.507670296205,-111.839311308735
"701 North Highway 177, Kearny, Arizona 85137",33.064839990374,-110.912200040609
"1233 N. Main Street, San Luis, Arizona 85349",32.501131143654,-114.785724764124
"900 N Main St, Eloy, Arizona 85131",32.758486247869,-111.554989764065
"33625 N North Valley Pkwy, Phoenix, Arizona 85085",33.788019647975,-112.118767106422
"1122 N G Ave, Douglas, Arizona 85607",31.345765832063,-109.554599615932
"27010 E Highway 70, San Carlos, Arizona 85550",33.355810005849,-110.452999989713
"115 N. Columbia Avenue, Somerton, Arizona 85350",32.596952893118,-114.706878547886
"409 W Mcmurray Blvd, Casa Grande, Arizona 85122",32.886775547589,-111.758279074598
"27010 E Highway 70, Peridot, Arizona 85542",33.298209986323,-110.474000009929
"6250 N 82nd St, Scottsdale, Arizona 85250",33.526414515973,-111.904489448991
"1201 N. Cougar Lane, Show Low, Arizona 85901",34.260480005415,-110.048899971903
"3959 E Elliot Rd, Gilbert, Arizona 85234",33.349706974509,-111.705783378196
"4703 E Indian School Rd, Phoenix, Arizona 85018",33.494664801339,-111.981967503641
"500w. Old Linden Rd., Show Low, Arizona 85901",34.256985958423,-110.048400145932
"1201 N. Cougar Lane, Show Low, Arizona 85901",34.260480005415,-110.048899971903
"590 N. Camino Galindo, Rio Rico, Arizona 85648",31.504830010936,-111.018999987756
"7601 E Oak St., Scottsdale, Arizona 85257",33.473110005014,-111.916599977723
"2226 W. I-10 Business Loop, San Simon, Arizona 85632",32.26524531253,-109.221261318168
"2222 W Northern Ave Ste A110, Phoenix, Arizona 85021",33.553159166036,-112.10592947659
"1727 N Arizona Ave Ste 5, Chandler, Arizona 85225",33.331875841098,-111.841626001915
"12575 E. Via Linda, Scottsdale, Arizona 85259",33.589620554096,-111.810052339153
"7501 E Virginia Ave, Scottsdale, Arizona 85257",33.476656938428,-111.91954368167
"6935 E Gold Dust Ave, Scottsdale, Arizona 85253",33.578445314017,-111.931534028018
"East Highway 160/98, Shonto, Arizona 86054",36.495841012029,-110.624799775926
"500 N. Main Street, Seligman, Arizona 86337",35.329980005198,-112.873999985342
"16440 S 32nd St, Phoenix, Arizona 85048",33.296394810986,-112.01455255386
"4201 E Knox Rd, Phoenix, Arizona 85044",33.326947021735,-111.990402932443
"4201 N Melpomene Way, Tucson, Arizona 85749",32.28542960612,-110.755171487523
"5225 E Buena School Blvd, Sierra Vista, Arizona 85635",31.569258069366,-110.240195551248
"1001 E Knox Rd, Tempe, Arizona 85284",33.327289061561,-111.926468366382
"7500 N 40th Street, Phoenix, Arizona 85042",33.37937719346,-111.997440667822
"Casa Blanca And Preschool Road, Bapchule, Arizona 85221",33.117765003404,-111.884037960267
"16537/16576 N. 92nd Street, Scottsdale, Arizona 85260",33.636669232574,-111.882826876766
"I 40 And Us 191, Sanders, Arizona 86512",35.190483594868,-109.436027533112
"1830 E Del Rio Dr, Tempe, Arizona 85282",33.39665198001,-111.907566851321
"1730 S Mill Ave, Tempe, Arizona 85281",33.410612971484,-111.939902198889
"995 Upper Red Rock Loop Rd, Sedona, Arizona 86336",34.846933140254,-111.828668961856
"995 Upper Red Rock Loop Rd, Sedona, Arizona 86336",34.846933140254,-111.828668961856
"5225 E Buena School Blvd, Sierra Vista, Arizona 85635",31.569258069366,-110.240195551248
"500 W Guadalupe Rd, Tempe, Arizona 85283",33.363718634755,-111.949441569103
"1495 S Verrado Way, Buckeye, Arizona 85326",33.433317171146,-112.50366160297
"3232 W Thomas Rd, Phoenix, Arizona 85017",33.480542192376,-112.128912799244
"2598 Starlite Ln, Lake Havasu City, Arizona 86403",34.491476313556,-114.317141127301
"3490 W Main St, Thatcher, Arizona 85552",32.849179146287,-109.758753008796
"850 W Valencia Rd, Tucson, Arizona 85706",32.133980031072,-110.982764718955
"601 North 3rd Avenue, Thatcher, Arizona 85552",32.843568559198,-109.753997628462
"4301 W Fillmore St, Phoenix, Arizona 85043",33.454827324874,-112.151865319392
"70 E Patton St, Saint David, Arizona 85630",31.905322307697,-110.220187106149
"2470 N Tucson Blvd, Tucson, Arizona 85716",32.251946953173,-110.935281419444
"190 South 2nd West, Snowflake, Arizona 85937",34.506597634453,-110.082111295283
"360 Redskin Drive, St Johns, Arizona 85936",34.501929988387,-109.388800034946
"6000 S Lakeshore Dr, Tempe, Arizona 85283",33.366105316142,-111.919989290886
"2470 N Tucson Blvd, Tucson, Arizona 85716",32.251946953173,-110.935281419444
"1251 E Southern Ave, Tempe, Arizona 85282",33.39291658675,-111.918859430734
"450 South 13th West, St Johns, Arizona 85936",34.512853348587,-109.384171246506
"4101 E Valencia Rd, Tucson, Arizona 85706",32.134294358539,-110.910686928503
"3102 N 56th St, Phoenix, Arizona 85018",33.483723881415,-111.960956560885
"9419 W Van Buren St, Tolleson, Arizona 85353",33.450244325832,-112.264262743533
"2700 W Broadway Blvd, Tucson, Arizona 85745",32.221478838896,-111.023474069403
"100 W Panther Dr, Superior, Arizona 85173",33.278629860505,-111.111526475806
"5093 S Liberty Ave, Tucson, Arizona 85706",32.159725822322,-110.973169629895
"1211 N. Yellowjacket Way, Tombstone, Arizona 85638",31.727588727012,-110.070236190255
"104 E Prince Rd, Tucson, Arizona 85705",32.271935166724,-110.970589676651
"2700 W Broadway Blvd, Tucson, Arizona 85745",32.221478838896,-111.023474069403
"2238 E Ginter Rd, Tucson, Arizona 85706",32.137641715499,-110.938584082677
"7318 W Lynwood St, Phoenix, Arizona 85035",33.464536183903,-112.216903675675
"1625 W Valencia Rd Ste 109, Tucson, Arizona 85746",32.133744718927,-110.999626488673
"1725 E Bilby Rd, Tucson, Arizona 85706",32.14137599662,-110.946327515131
"450 N Pantano Rd, Tucson, Arizona 85710",32.226789903562,-110.823757084132
"9801 W Van Buren St, Tolleson, Arizona 85353",33.450191698155,-112.27035560261
"2001 N Bullard Ave, Goodyear, Arizona 85395",33.468673015127,-112.3751217371
"6515 W Indian School Rd, Phoenix, Arizona 85033",33.494817258448,-112.199755657311
"421 N Arcadia Ave, Tucson, Arizona 85711",32.22699108109,-110.888113411291
"4088 W Jefferson Rd, Elfrida, Arizona 85610",31.685427483774,-109.683283953565
"5000 N Bowes Rd, Tucson, Arizona 85749",32.297646198256,-110.789334294709
"67 East Spruce Dr., Tuba City, Arizona 86045",36.138780017448,-111.23590000497
"Warrior Drive, Tuba City, Arizona 86045",36.125401841912,-111.22378562671
"11620 W Encanto Blvd, Avondale, Arizona 85392",33.471376187893,-112.310883183454
"11650 W Whyman Ave, Avondale, Arizona 85323",33.42409951415,-112.31017976374
"6210 S 28th St, Phoenix, Arizona 85042",33.390718183777,-112.021419619337
"10850 W Garden Lakes Pkwy, Avondale, Arizona 85392",33.489528004623,-112.294557452927
"9419 W Van Buren St, Tolleson, Arizona 85353",33.450244325832,-112.264262743533
"9126 W Camelback Rd, Glendale, Arizona 85305",33.508600180383,-112.263837939823
"400 N 2nd Ave, Tucson, Arizona 85705",32.227618091945,-110.962448939403
"2001 W Starr Pass Blvd, Tucson, Arizona 85713",32.206851708789,-111.00903915435
"102 N Plumer Ave, Tucson, Arizona 85719",32.222760243537,-110.939407064086
"421 N Arcadia Ave, Tucson, Arizona 85711",32.22699108109,-110.888113411291
"3951 S Pantano Rd, Tucson, Arizona 85730",32.175802062715,-110.823804522182
"755 N Magnolia Ave, Tucson, Arizona 85711",32.231146829999,-110.881946385024
"12775 E Mary Ann Cleveland Way, Vail, Arizona 85641",32.054879206038,-110.720793609451
"545 N Camino Seco, Tucson, Arizona 85710",32.226632760602,-110.806909546911
"3500 S 12th Ave, Tucson, Arizona 85713",32.183226710728,-110.977648483401
"3300 S Park Ave, Tucson, Arizona 85713",32.185898096121,-110.956309359702
"7762 E Science Park Dr, Tucson, Arizona 85747",32.097151950978,-110.826897831087
"3645 E Pima St, Tucson, Arizona 85716",32.243432852638,-110.915157836525
"3645 E Pima St, Tucson, Arizona 85716",32.243432852638,-110.915157836525
"440 S. Park, Tucson, Arizona 85719",32.218035011072,-110.956519011221
"1302 S Avenida Vega, Tucson, Arizona 85710",32.205531589429,-110.843981599883
"10701 E Mary Ann Cleveland Way, Tucson, Arizona 85747",32.088182644108,-110.772572299509
"12775 E Mary Ann Cleveland Way, Vail, Arizona 85641",32.054879206038,-110.720793609451
"600 E Cherry St, Winslow, Arizona 86047",35.027530137124,-110.689362365824
"Navajo Route 12, Fort Defiance, Arizona 86504",35.7322563,-109.0598461
"1090 S Vulture Mine Rd, Wickenburg, Arizona 85390",33.91504881273,-112.803920454833
"440 S 7th St, Williams, Arizona 86046",35.245688716989,-112.192569490709
"10800 E Valencia, Tucson, Arizona 85747",32.118875214426,-110.769636854718
"920 S. Vulture Mine Rd., Wickenburg, Arizona 85390",33.923325832154,-112.790342926951
"12960 S Houghton Rd, Tucson, Arizona 85747",32.028532256799,-110.773892919272
"Hwy 288 Baker Ranch Rd, Young, Arizona 85554",34.101547030286,-110.972370770295
"2970 Centerpointe East Dr, Prescott, Arizona 86301",34.628975489512,-112.410606613851
"200 Falcon Way, Whiteriver, Arizona 85941",33.829307856566,-109.973835326677
"240 N Bisbee Ave, Willcox, Arizona 85643",32.255894671587,-109.841400809197
"3810 W 16th St, Yuma, Arizona 85364",32.698474410879,-114.665362594941
"10775 E Mary Ann Cleveland Way, Tucson, Arizona 85747",32.084270534498,-110.756482538122
"6325 Baja Cir, Prescott Valley, Arizona 86314",34.634695252,-112.335934783861
"7150 E 24th St, Yuma, Arizona 85365",32.685659999347,-114.510700020246
"2350 S Virginia Dr, Yuma, Arizona 85364",32.685105397931,-114.622757277318
"3150 S Avenue A, Yuma, Arizona 85364",32.670869070205,-114.633120443153
"1250 North Eighth Avenue, San Luis, Arizona 85349",32.501189984615,-114.762700011378
"400 S 6th Ave, Yuma, Arizona 85364",32.719653814829,-114.627098651682
"4100 W 20th St, Yuma, Arizona 85364",32.691170161973,-114.674037854959
"3100 S Avenue A, Yuma, Arizona 85364",32.6757061595,-114.633190825302
"3900 S 55th Ave, Phoenix, Arizona 85043",33.413491440386,-112.1779035997
"15600 W Hearn Rd, Surprise, Arizona 85379",33.613269975129,-112.395216942802
"4825 W Camelback Rd, Phoenix, Arizona 85031",33.509298414822,-112.162875577279
"100 Clawson Ave Fl 3, Bisbee, Arizona 85603",31.443165327615,-109.917446373866
"41735 W. Alan Stephens Pkwy, Maricopa, Arizona 85138",33.042489980833,-112.015899965547
"2411 W Colter St, Phoenix, Arizona 85015",33.513103518481,-112.110447704258
"2250 S Gilbert Rd, Chandler, Arizona 85286",33.273686633107,-111.790498183943
"1645 W Skyline Drive, San Tan Valley, Arizona 85142",33.190520808771,-111.582934440443
"101 E Main, Alma, Arkansas 72921",35.47655336362,-94.219947445229
"15306 Alexander Rd, Scott, Arkansas 72142",34.702183158235,-92.101894380467
"171 Locust St, Ashdown, Arkansas 71822",33.670847824135,-94.119349749912
"300 Denver St Bldg A, Alpena, Arkansas 72611",36.291439997168,-93.294979991994
"206 Smith Dr, Augusta, Arkansas 72006",35.282741,-91.356789
"609 Sw 8th St, Bentonville, Arkansas 72712",36.364179887665,-94.215436483364
"900 Edgewood Dr, Maumelle, Arkansas 72113",34.865266313721,-92.405804039311
"4702 W Commercial Dr Ste B3, North Little Rock, Arkansas 72116",34.797558454207,-92.22131713819
"401 High School Rd, Arkadelphia, Arkansas 71923",34.122048139718,-93.097525064158
"4555 Hwy 137 N, Armorel, Arkansas 72310",35.917223685383,-89.799525453616
"901 N Hickory St, Bald Knob, Arkansas 72010",35.317296151671,-91.570622574203
"2600 W Markham St, Little Rock, Arkansas 72203",34.750942981265,-92.304807737822
"700 S Main St, Little Rock, Arkansas 72203",34.741844029511,-92.271934092171
"403 Ave Three Nw, Atkins, Arkansas 72823",35.245127019638,-92.940624476232
"1001 Regional Rd, Dermott, Arkansas 71638",33.515235016087,-91.414135120583
"945 N Plum St, Booneville, Arkansas 72927",35.146643001738,-93.908289119643
"9546 Hwy 85 S, Barton, Arkansas 72312",34.552325343039,-90.767571567915
"506 Popular St, Rogers, Arkansas 72756",36.331320683983,-94.121514511718
"1 Pioneer Dr, Batesville, Arkansas 72501",35.756513341747,-91.622570825853
"211 Border St, Benton, Arkansas 72015",34.564786006028,-92.574452232837
"8949 Hwy 7 N, Harrison, Arkansas 72601",36.134253759861,-93.119387038592
"5954 Hwy 29 N, Blevins, Arkansas 71825",33.876901372125,-93.571668550487
"16301 Missouri Camp Robinson, North Little Rock, Arkansas 72199",34.835616647121,-92.295091817017
"1800 Pine Grove Ln, Harrisburg, Arkansas 72432",35.581093423784,-90.718043366395
"700 School St, Bay, Arkansas 72411",35.7464610717,-90.566281449754
"635 N Plum, Bearden, Arkansas 71720",33.730661372529,-92.621255606702
"1351 Gamble, Centerton, Arkansas 72719",36.377403412481,-94.293448167542
"251 N First St, Jacksonville, Arkansas 72076",34.868443078973,-92.109643026914
"2500 W Markham St, Little Rock, Arkansas 72205",34.750906866583,-92.303498387646
"1901 Se J St, Bentonville, Arkansas 72712",36.351331073247,-94.197064169988
"902 W Trimble Ave, Berryville, Arkansas 72616",36.374774598579,-93.582029729867
"1201 W Center St, Beebe, Arkansas 72012",35.066239608017,-91.895726785015
"800 School St, Bauxite, Arkansas 72011",34.553409709853,-92.510852447017
"100 Tiger Dr, Brinkley, Arkansas 72021",34.877249987273,-91.195269995926
"1500 N Hill St, Newark, Arkansas 72562",35.719840842722,-91.446997107005
"800 School St, Bauxite, Arkansas 72011",34.553409709853,-92.510852447017
"600 N Tenth St, Blytheville, Arkansas 72315",35.932378763202,-89.914404264494
"1 Pirate Place, Calico Rock, Arkansas 72519",36.122900516078,-92.131406522191
"401 N Lincoln St, Cabot, Arkansas 72023",34.974709198821,-92.009246920789
"11636 Hwy 84, Bismarck, Arkansas 71929",34.314533219099,-93.17575079545
"1750 Cash Rd, Camden, Arkansas 71701",33.551161106585,-92.852123981951
"100 W School St, Brookland, Arkansas 72417",35.907437030087,-90.577255645651
"803 W Drew, Monette, Arkansas 72447",35.889970011027,-90.351209999226
"21 Funtastic Dr, Cabot, Arkansas 72023",34.940678866087,-92.026567203936
"504 W Main St, Bradford, Arkansas 72020",35.42501104927,-91.461029658643
"10920 Heber Springs N, Concord, Arkansas 72523",35.664053601755,-91.847226386204
"21 County Rd 215, Cherry Valley, Arkansas 72324",35.404443375956,-90.805610600013
"2268 Hwy 8 E, Norman, Arkansas 71960",34.455641767787,-93.759917796631
"301 W 9th St, Crossett, Arkansas 71635",33.123995563022,-91.963376827708
"198 Melba Ave, Cotter, Arkansas 72626",36.274020700591,-92.532557881163
"755 Hwy 8 E, Amity, Arkansas 71921",34.287488215737,-93.511632156331
"145 Raborn Rd, Carlisle, Arkansas 72024",34.774634743883,-91.733554963633
"3005 Dale Bumpers Dr, Charleston, Arkansas 72933",35.294120002209,-94.046539987459
"489 Yellowjacket Ln, Clinton, Arkansas 72031",35.58759483148,-92.460318818596
"201 Sullivan Dr, Bryant, Arkansas 72022",34.599380006361,-92.491620002543
"755 Hwy 8 E, Amity, Arkansas 71921",34.287488215737,-93.511632156331
